[{
	"properties": {
		"seq": "1",
		"county": "东城区",
		"business_circle": "王府井/东单",
		"cuisine": "北京菜",
		"name": "四季民福烤鸭店(故宫店)",
		"lat": "39.913213",
		"lng": "116.396643",
		"address": "北京市东城区南池子大街11号故宫东门旁",
		"status": "",
		"store_type": "分店",
		"dining_type": "【北京王府井/东单北京菜】推荐,王府井/东单北京菜排行/大全/攻略-大众点评网",
		"url": "http://www.dianping.com/beijing/ch10/g311r1475o2"
	},
	"lnglat": [116.40288696015642, 39.91461648961274]
}, {
	"properties": {
		"seq": "2",
		"county": "东城区",
		"business_circle": "北新桥/簋街",
		"cuisine": "小龙虾",
		"name": "胡大饭馆(簋街总店)",
		"lat": "39.939853",
		"lng": "116.413061",
		"address": "北京市东城区东直门内大街233号",
		"status": "",
		"store_type": "分店",
		"dining_type": "【北京北新桥/簋街小龙虾】推荐,北新桥/簋街小龙虾排行/大全/攻略-大众点评网",
		"url": "http://www.dianping.com/beijing/ch10/g219r23024o2"
	},
	"lnglat": [116.41930490963863, 39.94125589705238]
}, {
	"properties": {
		"seq": "3",
		"county": "东城区",
		"business_circle": "雍和宫/地坛",
		"cuisine": "素食",
		"name": "京兆尹",
		"lat": "39.946935",
		"lng": "116.409587",
		"address": "北京市东城区五道营胡同2号",
		"status": "",
		"store_type": "",
		"dining_type": "【北京雍和宫/地坛素食】推荐,雍和宫/地坛素食排行/大全/攻略-大众点评网",
		"url": "http://www.dianping.com/beijing/ch10/g109r23022o2"
	},
	"lnglat": [116.41583380417805, 39.94833953359318]
}, {
	"properties": {
		"seq": "4",
		"county": "东城区",
		"business_circle": "王府井/东单",
		"cuisine": "西餐",
		"name": "The Cheesecake Factory 芝乐坊餐厅(王府中環店)",
		"lat": "39.911148",
		"lng": "116.404798",
		"address": "北京市东城区王府井大街269号王府中環东座4层412-419号商铺",
		"status": "",
		"store_type": "",
		"dining_type": "【北京王府井/东单西餐】推荐,王府井/东单西餐排行/大全/攻略-大众点评网",
		"url": "http://www.dianping.com/beijing/ch10/g116r1475o2"
	},
	"lnglat": [116.411041862219, 39.912552052545045]
}, {
	"properties": {
		"seq": "5",
		"county": "东城区",
		"business_circle": "王府井/东单",
		"cuisine": "火锅",
		"name": "第六季自助餐厅(王府井店)",
		"lat": "39.914382",
		"lng": "116.401229",
		"address": "北京市东城区东安门大街55号",
		"status": "",
		"store_type": "分店",
		"dining_type": "【北京王府井/东单火锅】推荐,王府井/东单火锅排行/大全/攻略-大众点评网",
		"url": "http://www.dianping.com/beijing/ch10/g110r1475o2"
	},
	"lnglat": [116.4074736516077, 39.91578626192674]
}, {
	"properties": {
		"seq": "6",
		"county": "东城区",
		"business_circle": "东直门",
		"cuisine": "日本料理",
		"name": "京旬日式料理",
		"lat": "39.939957",
		"lng": "116.443809",
		"address": "北京市东城区东直门外大街南二里庄19号",
		"status": "",
		"store_type": "",
		"dining_type": "【北京东直门日本料理】推荐,东直门日本料理排行/大全/攻略-大众点评网",
		"url": "http://www.dianping.com/beijing/ch10/g113r2066o2"
	},
	"lnglat": [116.45000595316561, 39.9413246403479]
}, {
	"properties": {
		"seq": "7",
		"county": "东城区",
		"business_circle": "王府井/东单",
		"cuisine": "饮品店",
		"name": "赵记传承牛奶甜品(北京总店)",
		"lat": "39.910980",
		"lng": "116.405310",
		"address": "北京市东城区王府井大街176号丹耀大厦鸿豪食街二层",
		"status": "",
		"store_type": "",
		"dining_type": "【北京王府井/东单饮品店】推荐,王府井/东单饮品店排行/大全/攻略-大众点评网",
		"url": "http://www.dianping.com/beijing/ch10/g34236r1475o2"
	},
	"lnglat": [116.41155372859683, 39.91238398902749]
}, {
	"properties": {
		"seq": "8",
		"county": "东城区",
		"business_circle": "王府井/东单",
		"cuisine": "北京菜",
		"name": "河沿肉饼 Beijing Pie(东城总店)",
		"lat": "39.914353",
		"lng": "116.402391",
		"address": "北京市东城区东安门大街43号7幢一层101",
		"status": "",
		"store_type": "分店",
		"dining_type": "【北京王府井/东单北京菜】推荐,王府井/东单北京菜排行/大全/攻略-大众点评网",
		"url": "http://www.dianping.com/beijing/ch10/g311r1475o2"
	},
	"lnglat": [116.4086356026801, 39.91575729893429]
}, {
	"properties": {
		"seq": "9",
		"county": "东城区",
		"business_circle": "王府井/东单",
		"cuisine": "面包甜点",
		"name": "和平菓局",
		"lat": "39.912861",
		"lng": "116.403776",
		"address": "北京市东城区王府井大街255号王府井百货地下2层",
		"status": "",
		"store_type": "",
		"dining_type": "【北京王府井/东单面包甜点】推荐,王府井/东单面包甜点排行/大全/攻略-大众点评网",
		"url": "http://www.dianping.com/beijing/ch10/g117r1475o2"
	},
	"lnglat": [116.41002026087936, 39.914265203598674]
}, {
	"properties": {
		"seq": "10",
		"county": "东城区",
		"business_circle": "地安门",
		"cuisine": "湘菜",
		"name": "马凯餐厅",
		"lat": "39.938873",
		"lng": "116.395763",
		"address": "北京市西城区什刹海街道后海社区东南方向",
		"status": "",
		"store_type": "",
		"dining_type": "",
		"url": "http://www.dianping.com/shop/104969943"
	},
	"lnglat": [116.40201000013757, 39.94027730231782]
}, {
	"properties": {
		"seq": "11",
		"county": "东城区",
		"business_circle": "地安门",
		"cuisine": "咖啡厅",
		"name": "The Gerog",
		"lat": "39.939320",
		"lng": "116.397145",
		"address": "北京市北京市东城区北兵马司胡同29号",
		"status": "",
		"store_type": "",
		"dining_type": "",
		"url": ""
	},
	"lnglat": [116.40339240624003, 39.94072468502657]
}, {
	"properties": {
		"seq": "12",
		"county": "东城区",
		"business_circle": "崇文门",
		"cuisine": "自助餐",
		"name": "天坛街自助餐厅",
		"lat": "39.919271",
		"lng": "116.454487",
		"address": "北京市东城区祈年大街8号新世界酒店1层",
		"status": "",
		"store_type": "",
		"dining_type": "【北京崇文门自助餐】推荐,崇文门自助餐排行/大全/攻略-大众点评网",
		"url": "http://www.dianping.com/beijing/ch10/g111r1504o2"
	},
	"lnglat": [116.46065366584654, 39.92061652518638]
}, {
	"properties": {
		"seq": "13",
		"county": "东城区",
		"business_circle": "王府井/东单",
		"cuisine": "北京菜",
		"name": "局气(王府井店)",
		"lat": "39.912500",
		"lng": "116.405135",
		"address": "北京市东城区王府井大街138号apm6层",
		"status": "",
		"store_type": "分店",
		"dining_type": "【北京王府井/东单北京菜】推荐,王府井/东单北京菜排行/大全/攻略-大众点评网",
		"url": "http://www.dianping.com/beijing/ch10/g311r1475o2"
	},
	"lnglat": [116.41137896243258, 39.91390407473544]
}, {
	"properties": {
		"seq": "14",
		"county": "东城区",
		"business_circle": "东四十条",
		"cuisine": "北京菜",
		"name": "四季民福烤鸭店(东四十条店)",
		"lat": "39.932609",
		"lng": "116.423904",
		"address": "北京市东城区东四十条23号",
		"status": "",
		"store_type": "分店",
		"dining_type": "【北京东四十条北京菜】推荐,东四十条北京菜排行/大全/攻略-大众点评网",
		"url": "http://www.dianping.com/beijing/ch10/g311r23021o2"
	},
	"lnglat": [116.43013636601961, 39.93400388451595]
}, {
	"properties": {
		"seq": "15",
		"county": "东城区",
		"business_circle": "安定门",
		"cuisine": "人气餐厅",
		"name": "元古本店(箭厂店)",
		"lat": "39.945705",
		"lng": "116.405501",
		"address": "北京市东城区箭厂胡同34号",
		"status": "",
		"store_type": "分店",
		"dining_type": "【北京安定门人气餐厅】推荐,安定门人气餐厅排行/大全/攻略-大众点评网",
		"url": "http://www.dianping.com/beijing/ch10/g34032r1478o2"
	},
	"lnglat": [116.41174911450598, 39.94711038693068]
}, {
	"properties": {
		"seq": "16",
		"county": "东城区",
		"business_circle": "南锣鼓巷/鼓楼东大街",
		"cuisine": "私房菜",
		"name": "后海16号私房菜·露台小火锅",
		"lat": "39.936827",
		"lng": "116.386908",
		"address": "北京市东城区大金丝胡同4号",
		"status": "",
		"store_type": "",
		"dining_type": "【北京南锣鼓巷/鼓楼东大街私房菜】推荐,南锣鼓巷/鼓楼东大街私房菜排行/大全/攻略-大众点评网",
		"url": "http://www.dianping.com/beijing/ch10/g1338r23023o2"
	},
	"lnglat": [116.39315013302985, 39.93822700195135]
}, {
	"properties": {
		"seq": "17",
		"county": "东城区",
		"business_circle": "王府井/东单",
		"cuisine": "人气餐厅",
		"name": "Tomacado花厨(王府中環店)",
		"lat": "39.911148",
		"lng": "116.404798",
		"address": "北京市东城区王府井大街269号王府中环东座4层402号商铺",
		"status": "",
		"store_type": "分店",
		"dining_type": "【北京王府井/东单人气餐厅】推荐,王府井/东单人气餐厅排行/大全/攻略-大众点评网",
		"url": "http://www.dianping.com/beijing/ch10/g34032r1475o2"
	},
	"lnglat": [116.411041862219, 39.912552052545045]
}, {
	"properties": {
		"seq": "18",
		"county": "东城区",
		"business_circle": "前门",
		"cuisine": "人气餐厅",
		"name": "铃木食堂(前门店)",
		"lat": "39.894580",
		"lng": "116.387416",
		"address": "北京市东城区杨梅竹斜街10-14号",
		"status": "",
		"store_type": "分店",
		"dining_type": "【北京前门人气餐厅】推荐,前门人气餐厅排行/大全/攻略-大众点评网",
		"url": "http://www.dianping.com/beijing/ch10/g34032r1503o2"
	},
	"lnglat": [116.3936531202696, 39.89597853315532]
}, {
	"properties": {
		"seq": "19",
		"county": "东城区",
		"business_circle": "地安门",
		"cuisine": "西餐",
		"name": "oh!by FINE cafe&canteen",
		"lat": "39.931737",
		"lng": "116.390856",
		"address": "北京市东城区地安门外大街16号",
		"status": "",
		"store_type": "",
		"dining_type": "",
		"url": ""
	},
	"lnglat": [116.39710003488642, 39.933139073207045]
}, {
	"properties": {
		"seq": "20",
		"county": "东城区",
		"business_circle": "王府井/东单",
		"cuisine": "粤菜",
		"name": "翠园(王府中环店)",
		"lat": "39.911148",
		"lng": "116.404798",
		"address": "北京市东城区王府井大街269号王府中环东楼4层",
		"status": "",
		"store_type": "",
		"dining_type": "【北京王府井/东单粤菜】推荐,王府井/东单粤菜排行/大全/攻略-大众点评网",
		"url": "http://www.dianping.com/beijing/ch10/g103r1475o2"
	},
	"lnglat": [116.411041862219, 39.912552052545045]
}, {
	"properties": {
		"seq": "21",
		"county": "东城区",
		"business_circle": "安定门本帮",
		"cuisine": "江浙菜",
		"name": "淮扬府(安定门店)",
		"lat": "39.952525",
		"lng": "116.402361",
		"address": "北京市东城区安定门外大街198号",
		"status": "",
		"store_type": "分店",
		"dining_type": "【北京安定门本帮江浙菜】推荐,安定门本帮江浙菜排行/大全/攻略-大众点评网",
		"url": "http://www.dianping.com/beijing/ch10/g101r1478o2"
	},
	"lnglat": [116.40861047743022, 39.95393084583894]
}, {
	"properties": {
		"seq": "22",
		"county": "东城区",
		"business_circle": "北新桥/簋街",
		"cuisine": "北京菜",
		"name": "花家怡园(四合院总店)",
		"lat": "39.939854",
		"lng": "116.412895",
		"address": "北京市东城区东直门内大街235号簋街西边",
		"status": "",
		"store_type": "分店",
		"dining_type": "【北京北新桥/簋街北京菜】推荐,北新桥/簋街北京菜排行/大全/攻略-大众点评网",
		"url": "http://www.dianping.com/beijing/ch10/g311r23024o2"
	},
	"lnglat": [116.41913902046016, 39.941256974201636]
}, {
	"properties": {
		"seq": "23",
		"county": "东城区",
		"business_circle": "前门",
		"cuisine": "西餐",
		"name": "北平花园(天安门店)",
		"lat": "39.896708",
		"lng": "116.389271",
		"address": "北京市东城区煤市街与廊房头条交叉口东北角北京坊西区5号楼4层401",
		"status": "",
		"store_type": "分店",
		"dining_type": "【北京前门西餐】推荐,前门西餐排行/大全/攻略-大众点评网",
		"url": "http://www.dianping.com/beijing/ch10/g116r1503o2"
	},
	"lnglat": [116.3955096398281, 39.89810774019907]
}, {
	"properties": {
		"seq": "24",
		"county": "东城区",
		"business_circle": "前门",
		"cuisine": "北京菜",
		"name": "四季民福烤鸭店(前门店)",
		"lat": "39.894693",
		"lng": "116.391077",
		"address": "北京市东城区大栅栏街1号",
		"status": "",
		"store_type": "",
		"dining_type": "【北京前门北京菜】推荐,前门北京菜排行/大全/攻略-大众点评网",
		"url": "http://www.dianping.com/beijing/ch10/g311r1503o2"
	},
	"lnglat": [116.39731643182807, 39.896093595550454]
}, {
	"properties": {
		"seq": "25",
		"county": "东城区",
		"business_circle": "南锣鼓巷/鼓楼东大街",
		"cuisine": "人气餐厅",
		"name": "风铃酒馆",
		"lat": "39.933177",
		"lng": "116.402783",
		"address": "北京市东城区交道口南大街140号",
		"status": "",
		"store_type": "",
		"dining_type": "【北京南锣鼓巷/鼓楼东大街人气餐厅】推荐,南锣鼓巷/鼓楼东大街人气餐厅排行/大全/攻略-大众点评网",
		"url": "http://www.dianping.com/beijing/ch10/g34032r23023o2"
	},
	"lnglat": [116.4090299724448, 39.934582075962155]
}, {
	"properties": {
		"seq": "26",
		"county": "东城区",
		"business_circle": "王府井/东单",
		"cuisine": "人气餐厅",
		"name": "南门涮肉(东单店)",
		"lat": "39.906085",
		"lng": "116.415912",
		"address": "北京市东城区建国门内大街26号新闻大厦3层",
		"status": "",
		"store_type": "分店",
		"dining_type": "【北京王府井/东单人气餐厅】推荐,王府井/东单人气餐厅排行/大全/攻略-大众点评网",
		"url": "http://www.dianping.com/beijing/ch10/g34032r1475o2"
	},
	"lnglat": [116.42214945787929, 39.90748497693577]
}, {
	"properties": {
		"seq": "27",
		"county": "东城区",
		"business_circle": "前门",
		"cuisine": "人气餐厅",
		"name": "局气(前门店)",
		"lat": "39.896378",
		"lng": "116.390695",
		"address": "北京市东城区煤市街与廊房头条交叉口东北角北京坊E14楼三层",
		"status": "",
		"store_type": "分店",
		"dining_type": "【北京前门人气餐厅】推荐,前门人气餐厅排行/大全/攻略-大众点评网",
		"url": "http://www.dianping.com/beijing/ch10/g34032r1503o2"
	},
	"lnglat": [116.39693443853176, 39.89777848334808]
}, {
	"properties": {
		"seq": "28",
		"county": "东城区",
		"business_circle": "南锣鼓巷/鼓楼东大街",
		"cuisine": "火锅",
		"name": "付小姐在成都(南锣鼓巷店)",
		"lat": "39.931993",
		"lng": "116.396503",
		"address": "北京市东城区地安门东大街织补项目地面广场5号楼1-2层",
		"status": "",
		"store_type": "分店",
		"dining_type": "【北京南锣鼓巷/鼓楼东大街火锅】推荐,南锣鼓巷/鼓楼东大街火锅排行/大全/攻略-大众点评网",
		"url": "http://www.dianping.com/beijing/ch10/g110r23023o2"
	},
	"lnglat": [116.40274932154624, 39.933397231421644]
}, {
	"properties": {
		"seq": "29",
		"county": "东城区",
		"business_circle": "王府井/东单",
		"cuisine": "人气餐厅",
		"name": "四季民福烤鸭店(王府井东安门店)",
		"lat": "39.914056",
		"lng": "116.401912",
		"address": "北京市东城区东安门大街53号万程华府酒店1楼",
		"status": "",
		"store_type": "分店",
		"dining_type": "【北京王府井/东单人气餐厅】推荐,王府井/东单人气餐厅排行/大全/攻略-大众点评网",
		"url": "http://www.dianping.com/beijing/ch10/g34032r1475o2"
	},
	"lnglat": [116.40815659247176, 39.91546027770811]
}, {
	"properties": {
		"seq": "30",
		"county": "东城区",
		"business_circle": "东直门",
		"cuisine": "人气餐厅",
		"name": "伙伴日式烤肉",
		"lat": "39.939040",
		"lng": "116.432416",
		"address": "北京市东城区东直门外新中街甲3号蜂巢剧场1层",
		"status": "",
		"store_type": "",
		"dining_type": "【北京东直门人气餐厅】推荐,东直门人气餐厅排行/大全/攻略-大众点评网",
		"url": "http://www.dianping.com/beijing/ch10/g34032r2066o2"
	},
	"lnglat": [116.43863623031201, 39.94042542088287]
}, {
	"properties": {
		"seq": "31",
		"county": "东城区",
		"business_circle": "和平里",
		"cuisine": "人气餐厅",
		"name": "四季民福烤鸭店(和平里店)",
		"lat": "39.960785",
		"lng": "116.410972",
		"address": "北京市东城区和平里西街21号北京商报1-2层",
		"status": "",
		"store_type": "分店",
		"dining_type": "【北京和平里人气餐厅】推荐,和平里人气餐厅排行/大全/攻略-大众点评网",
		"url": "http://www.dianping.com/beijing/ch10/g34032r2591o2"
	},
	"lnglat": [116.41721986187518, 39.962189604932604]
}, {
	"properties": {
		"seq": "32",
		"county": "东城区",
		"business_circle": "地安门",
		"cuisine": "咖啡厅",
		"name": "KODO可多 Gift&Cafeteria",
		"lat": "39.939350",
		"lng": "116.393785",
		"address": "北京市北京市东城区鼓楼东大街186-2号",
		"status": "",
		"store_type": "",
		"dining_type": "",
		"url": ""
	},
	"lnglat": [116.40003138459423, 39.94075365883126]
}, {
	"properties": {
		"seq": "33",
		"county": "东城区",
		"business_circle": "南锣鼓巷/鼓楼东大街",
		"cuisine": "咖啡厅",
		"name": "静水StillWater",
		"lat": "39.939594",
		"lng": "116.399235",
		"address": "北京市东城区鼓楼东大街69号",
		"status": "",
		"store_type": "",
		"dining_type": "【北京南锣鼓巷/鼓楼东大街咖啡厅】推荐,南锣鼓巷/鼓楼东大街咖啡厅排行/大全/攻略-大众点评网",
		"url": "http://www.dianping.com/beijing/ch10/g132r23023o2"
	},
	"lnglat": [116.40548277360683, 39.94099909273546]
}, {
	"properties": {
		"seq": "34",
		"county": "东城区",
		"business_circle": "东四",
		"cuisine": "小吃",
		"name": "宝瑞门钉肉饼店",
		"lat": "39.928774",
		"lng": "116.414214",
		"address": "北京市东城区东四六条路60-1号",
		"status": "",
		"store_type": "",
		"dining_type": "【北京东四小吃】推荐,东四小吃排行/大全/攻略-大众点评网",
		"url": "http://www.dianping.com/beijing/ch10/g112r1477o2"
	},
	"lnglat": [116.42045568387253, 39.93017588097265]
}, {
	"properties": {
		"seq": "35",
		"county": "东城区",
		"business_circle": "王府井/东单",
		"cuisine": "日本料理",
		"name": "老乾杯(王府中环店)",
		"lat": "39.911148",
		"lng": "116.404798",
		"address": "北京市东城区王府井大街269号王府中环西座4层406商铺",
		"status": "",
		"store_type": "",
		"dining_type": "【北京王府井/东单日本料理】推荐,王府井/东单日本料理排行/大全/攻略-大众点评网",
		"url": "http://www.dianping.com/beijing/ch10/g113r1475o2"
	},
	"lnglat": [116.411041862219, 39.912552052545045]
}, {
	"properties": {
		"seq": "36",
		"county": "东城区",
		"business_circle": "雍和宫/地坛",
		"cuisine": "粤菜",
		"name": "金鼎轩·南北菜(地坛店)",
		"lat": "39.949575",
		"lng": "116.409575",
		"address": "北京市东城区和平里西街77号",
		"status": "",
		"store_type": "分店",
		"dining_type": "【北京雍和宫/地坛粤菜】推荐,雍和宫/地坛粤菜排行/大全/攻略-大众点评网",
		"url": "http://www.dianping.com/beijing/ch10/g103r23022o2"
	},
	"lnglat": [116.41582214702984, 39.950979641708265]
}, {
	"properties": {
		"seq": "37",
		"county": "东城区",
		"business_circle": "崇文门",
		"cuisine": "小吃",
		"name": "最喜酿皮(崇文门店)",
		"lat": "39.898376",
		"lng": "116.411912",
		"address": "北京市东城区崇文门外大街1号楼六层L6-02",
		"status": "",
		"store_type": "分店",
		"dining_type": "【北京崇文门小吃】推荐,崇文门小吃排行/大全/攻略-大众点评网",
		"url": "http://www.dianping.com/beijing/ch10/g112r1504o2"
	},
	"lnglat": [116.41815135402112, 39.89977766028418]
}, {
	"properties": {
		"seq": "38",
		"county": "东城区",
		"business_circle": "前门",
		"cuisine": "北京菜",
		"name": "提督·TIDU",
		"lat": "39.927193",
		"lng": "116.409748",
		"address": "北京市东城区",
		"status": "",
		"store_type": "",
		"dining_type": "【北京前门北京菜】推荐,前门北京菜排行/大全/攻略-大众点评网",
		"url": "http://www.dianping.com/beijing/ch10/g311r1503o2"
	},
	"lnglat": [116.41599220701038, 39.92859669077839]
}, {
	"properties": {
		"seq": "39",
		"county": "东城区",
		"business_circle": "王府井/东单",
		"cuisine": "其他美食",
		"name": "王府井文华东方酒店·Mo Bar",
		"lat": "39.911148",
		"lng": "116.404798",
		"address": "北京市东城区王府井大街269号王府中环东座五层501",
		"status": "",
		"store_type": "分店",
		"dining_type": "【北京王府井/东单其他美食】推荐,王府井/东单其他美食排行/大全/攻略-大众点评网",
		"url": "http://www.dianping.com/beijing/ch10/g118r1475o2"
	},
	"lnglat": [116.411041862219, 39.912552052545045]
}, {
	"properties": {
		"seq": "40",
		"county": "东城区",
		"business_circle": "前门",
		"cuisine": "西餐",
		"name": "SHANG BAR上餐吧(皇家驿栈天安门店)",
		"lat": "39.895367",
		"lng": "116.393412",
		"address": "北京市东城区前门商业区鲜鱼口街87号",
		"status": "",
		"store_type": "",
		"dining_type": "【北京前门西餐】推荐,前门西餐排行/大全/攻略-大众点评网",
		"url": "http://www.dianping.com/beijing/ch10/g116r1503o2"
	},
	"lnglat": [116.39965262492437, 39.89676865417903]
}, {
	"properties": {
		"seq": "41",
		"county": "东城区",
		"business_circle": "东四",
		"cuisine": "火锅",
		"name": "彭记铁锅肥肠",
		"lat": "39.937190",
		"lng": "116.410852",
		"address": "北京市东城区东四北大街52号",
		"status": "",
		"store_type": "",
		"dining_type": "【北京东四火锅】推荐,东四火锅排行/大全/攻略-大众点评网",
		"url": "http://www.dianping.com/beijing/ch10/g110r1477o2"
	},
	"lnglat": [116.41709691453188, 39.93859371518612]
}, {
	"properties": {
		"seq": "42",
		"county": "东城区",
		"business_circle": "左安门",
		"cuisine": "新疆菜",
		"name": "准噶尔餐厅",
		"lat": "39.880037",
		"lng": "116.436888",
		"address": "北京市东城区龙潭湖公园8号",
		"status": "",
		"store_type": "",
		"dining_type": "【北京左安门新疆菜】推荐,左安门新疆菜排行/大全/攻略-大众点评网",
		"url": "http://www.dianping.com/beijing/ch10/g3243r2874o2"
	},
	"lnglat": [116.44309235341704, 39.88141348225177]
}, {
	"properties": {
		"seq": "43",
		"county": "东城区",
		"business_circle": "建国门/站",
		"cuisine": "自助餐",
		"name": "川骄海鲜自助(建国门店)",
		"lat": "39.903146",
		"lng": "116.428252",
		"address": "北京市东城区建国门南大街7号",
		"status": "",
		"store_type": "分店",
		"dining_type": "【北京建国门/北京站自助餐】推荐,建国门/北京站自助餐排行/大全/攻略-大众点评网",
		"url": "http://www.dianping.com/beijing/ch10/g111r1476o2"
	},
	"lnglat": [116.4344744973674, 39.90453507284593]
}, {
	"properties": {
		"seq": "44",
		"county": "东城区",
		"business_circle": "王府井/东单",
		"cuisine": "北京菜",
		"name": "四季民福烤鸭店(王府井灯市口店)",
		"lat": "39.916975",
		"lng": "116.402531",
		"address": "北京市东城区灯市口西街32号东华饭店1楼",
		"status": "",
		"store_type": "分店",
		"dining_type": "【北京王府井/东单北京菜】推荐,王府井/东单北京菜排行/大全/攻略-大众点评网",
		"url": "http://www.dianping.com/beijing/ch10/g311r1475o2"
	},
	"lnglat": [116.40877592663193, 39.91837941041818]
}, {
	"properties": {
		"seq": "45",
		"county": "东城区",
		"business_circle": "地安门",
		"cuisine": "咖啡厅",
		"name": "糖房咖啡（南锣店）",
		"lat": "39.936490",
		"lng": "116.396755",
		"address": "北京市北京市东城区北兵马司胡同29号",
		"status": "",
		"store_type": "",
		"dining_type": "",
		"url": ""
	},
	"lnglat": [116.40300195682676, 39.93789447710021]
}, {
	"properties": {
		"seq": "46",
		"county": "东城区",
		"business_circle": "东直门",
		"cuisine": "火锅",
		"name": "温野菜日式火锅",
		"lat": "39.939040",
		"lng": "116.432416",
		"address": "北京市东城区新中街甲3号蜂巢剧场B1层",
		"status": "",
		"store_type": "",
		"dining_type": "【北京东直门火锅】推荐,东直门火锅排行/大全/攻略-大众点评网",
		"url": "http://www.dianping.com/beijing/ch10/g110r2066o2"
	},
	"lnglat": [116.43863623031201, 39.94042542088287]
}, {
	"properties": {
		"seq": "47",
		"county": "东城区",
		"business_circle": "王府井/东单",
		"cuisine": "自助餐",
		"name": "南京大饭店自助餐厅",
		"lat": "39.913098",
		"lng": "116.402292",
		"address": "北京市东城区王府井西街5号南京大饭店1楼",
		"status": "",
		"store_type": "",
		"dining_type": "【北京王府井/东单自助餐】推荐,王府井/东单自助餐排行/大全/攻略-大众点评网",
		"url": "http://www.dianping.com/beijing/ch10/g111r1475o2"
	},
	"lnglat": [116.40853644937776, 39.9145022445625]
}, {
	"properties": {
		"seq": "48",
		"county": "东城区",
		"business_circle": "雍和宫/地坛",
		"cuisine": "西餐",
		"name": "He Kitchen Co",
		"lat": "39.946931",
		"lng": "116.407032",
		"address": "北京市东城区五道营胡同48号",
		"status": "",
		"store_type": "",
		"dining_type": "【北京雍和宫/地坛西餐】推荐,雍和宫/地坛西餐排行/大全/攻略-大众点评网",
		"url": "http://www.dianping.com/beijing/ch10/g116r23022o2"
	},
	"lnglat": [116.4132798314155, 39.9483361847385]
}, {
	"properties": {
		"seq": "49",
		"county": "东城区",
		"business_circle": "东直门",
		"cuisine": "下午茶",
		"name": "老井俄式餐厅",
		"lat": "39.927193",
		"lng": "116.409748",
		"address": "北京市东城区西羊管胡同甲1号御嘉置地1层",
		"status": "",
		"store_type": "",
		"dining_type": "【北京东直门下午茶】推荐,东直门下午茶排行/大全/攻略-大众点评网",
		"url": "http://www.dianping.com/beijing/ch10/g34014r2066o2"
	},
	"lnglat": [116.41599220701038, 39.92859669077839]
}, {
	"properties": {
		"seq": "50",
		"county": "东城区",
		"business_circle": "崇文门",
		"cuisine": "火锅",
		"name": "太狮港式打边炉",
		"lat": "39.895322",
		"lng": "116.413085",
		"address": "北京市东城区崇文门外大街40号搜秀城九层",
		"status": "",
		"store_type": "",
		"dining_type": "【北京崇文门火锅】推荐,崇文门火锅排行/大全/攻略-大众点评网",
		"url": "http://www.dianping.com/beijing/ch10/g110r1504o2"
	},
	"lnglat": [116.41932321511447, 39.89672300151592]
}, {
	"properties": {
		"seq": "51",
		"county": "东城区",
		"business_circle": "东四",
		"cuisine": "咖啡厅",
		"name": "1/4 One Quarter Coffee Lab",
		"lat": "39.928739",
		"lng": "116.411477",
		"address": "北京市东城区东四六条85号",
		"status": "",
		"store_type": "",
		"dining_type": "【北京东四咖啡厅】推荐,东四咖啡厅排行/大全/攻略-大众点评网",
		"url": "http://www.dianping.com/beijing/ch10/g132r1477o2"
	},
	"lnglat": [116.41772048368611, 39.93014213465115]
}, {
	"properties": {
		"seq": "52",
		"county": "东城区",
		"business_circle": "王府井/东单",
		"cuisine": "火锅",
		"name": "袍公馆（王府井店）",
		"lat": "39.910919",
		"lng": "116.403492",
		"address": "北京市北京市东城区王府井大街138号",
		"status": "",
		"store_type": "",
		"dining_type": "",
		"url": ""
	},
	"lnglat": [116.40973605296783, 39.91232313379976]
}, {
	"properties": {
		"seq": "53",
		"county": "东城区",
		"business_circle": "王府井/东单",
		"cuisine": "鲁菜",
		"name": "丰泽园饭店(王府井店)",
		"lat": "39.908453",
		"lng": "116.404760",
		"address": "北京市东城区王府井大街301号王府商厦五层",
		"status": "",
		"store_type": "",
		"dining_type": "【北京王府井/东单鲁菜】推荐,王府井/东单鲁菜排行/大全/攻略-大众点评网",
		"url": "http://www.dianping.com/beijing/ch10/g26483r1475o2"
	},
	"lnglat": [116.41100352630973, 39.90985693990313]
}, {
	"properties": {
		"seq": "54",
		"county": "东城区",
		"business_circle": "王府井/东单",
		"cuisine": "火锅",
		"name": "漫火锅",
		"lat": "39.912273",
		"lng": "116.404604",
		"address": "北京市东城区王府井大街255号北京市百货大楼6楼",
		"status": "",
		"store_type": "",
		"dining_type": "【北京王府井/东单火锅】推荐,王府井/东单火锅排行/大全/攻略-大众点评网",
		"url": "http://www.dianping.com/beijing/ch10/g110r1475o2"
	},
	"lnglat": [116.41084804437192, 39.9136771190742]
}, {
	"properties": {
		"seq": "55",
		"county": "东城区",
		"business_circle": "王府井/东单",
		"cuisine": "北京菜",
		"name": "小大董(新东安店)",
		"lat": "39.912500",
		"lng": "116.405135",
		"address": "北京市东城区王府井大街138号北京apmC区5层518-525",
		"status": "",
		"store_type": "分店",
		"dining_type": "【北京王府井/东单北京菜】推荐,王府井/东单北京菜排行/大全/攻略-大众点评网",
		"url": "http://www.dianping.com/beijing/ch10/g311r1475o2"
	},
	"lnglat": [116.41137896243258, 39.91390407473544]
}, {
	"properties": {
		"seq": "56",
		"county": "东城区",
		"business_circle": "安定门",
		"cuisine": "北京菜",
		"name": "馅老满(安定门店)",
		"lat": "39.941763",
		"lng": "116.402391",
		"address": "北京市东城区安定门内大街252号",
		"status": "",
		"store_type": "分店",
		"dining_type": "【北京安定门北京菜】推荐,安定门北京菜排行/大全/攻略-大众点评网",
		"url": "http://www.dianping.com/beijing/ch10/g311r1478o2"
	},
	"lnglat": [116.40863910072876, 39.94316842015562]
}, {
	"properties": {
		"seq": "57",
		"county": "东城区",
		"business_circle": "雍和宫/地坛",
		"cuisine": "人气餐厅",
		"name": "菀wǎn",
		"lat": "39.946956",
		"lng": "116.409363",
		"address": "北京市东城区五道营胡同10号",
		"status": "",
		"store_type": "",
		"dining_type": "【北京雍和宫/地坛人气餐厅】推荐,雍和宫/地坛人气餐厅排行/大全/攻略-大众点评网",
		"url": "http://www.dianping.com/beijing/ch10/g34032r23022o2"
	},
	"lnglat": [116.41560991171507, 39.9483606032083]
}, {
	"properties": {
		"seq": "58",
		"county": "东城区",
		"business_circle": "北新桥/簋街",
		"cuisine": "小吃",
		"name": "很久以前羊肉串(簋街店)",
		"lat": "39.939772",
		"lng": "116.414303",
		"address": "北京市东城区东直门内大街209号",
		"status": "",
		"store_type": "",
		"dining_type": "【北京北新桥/簋街小吃】推荐,北新桥/簋街小吃排行/大全/攻略-大众点评网",
		"url": "http://www.dianping.com/beijing/ch10/g112r23024o2"
	},
	"lnglat": [116.420546021377, 39.94117427751383]
}, {
	"properties": {
		"seq": "59",
		"county": "东城区",
		"business_circle": "王府井/东单",
		"cuisine": "西餐",
		"name": "牛排家(澳门中心店)",
		"lat": "39.913750",
		"lng": "116.407071",
		"address": "北京市东城区王府井东街8号澳门中心1层",
		"status": "",
		"store_type": "分店",
		"dining_type": "【北京王府井/东单西餐】推荐,王府井/东单西餐排行/大全/攻略-大众点评网",
		"url": "http://www.dianping.com/beijing/ch10/g116r1475o2"
	},
	"lnglat": [116.4133145838016, 39.915153825001134]
}, {
	"properties": {
		"seq": "60",
		"county": "东城区",
		"business_circle": "崇文门",
		"cuisine": "日本料理",
		"name": "和樂亭日式锅料理(合景·摩方店)",
		"lat": "39.898714",
		"lng": "116.411806",
		"address": "北京市东城区崇文门外大街1号合景摩方大厦L6-03/04",
		"status": "",
		"store_type": "",
		"dining_type": "【北京崇文门日本料理】推荐,崇文门日本料理排行/大全/攻略-大众点评网",
		"url": "http://www.dianping.com/beijing/ch10/g113r1504o2"
	},
	"lnglat": [116.41804546099917, 39.90011571947296]
}, {
	"properties": {
		"seq": "61",
		"county": "东城区",
		"business_circle": "王府井/东单",
		"cuisine": "火锅",
		"name": "捞王锅物料理(王府井APM店)",
		"lat": "39.913835",
		"lng": "116.405461",
		"address": "北京市东城区王府井大街138号新东安广场5层532-535号",
		"status": "",
		"store_type": "",
		"dining_type": "【北京王府井/东单火锅】推荐,王府井/东单火锅排行/大全/攻略-大众点评网",
		"url": "http://www.dianping.com/beijing/ch10/g110r1475o2"
	},
	"lnglat": [116.41170505679996, 39.91523909230154]
}, {
	"properties": {
		"seq": "62",
		"county": "东城区",
		"business_circle": "朝阳门川菜",
		"cuisine": "川菜",
		"name": "红辣椒(朝外店)",
		"lat": "39.921464",
		"lng": "116.432372",
		"address": "北京市东城区朝外外交部南街联合大厦5层",
		"status": "",
		"store_type": "",
		"dining_type": "【北京朝阳门川菜】推荐,朝阳门川菜排行/大全/攻略-大众点评网",
		"url": "http://www.dianping.com/beijing/ch10/g102r1479o2"
	},
	"lnglat": [116.43859007062423, 39.92284876451008]
}, {
	"properties": {
		"seq": "63",
		"county": "东城区",
		"business_circle": "朝阳门",
		"cuisine": "西餐",
		"name": "Met Petal遇见花瓣",
		"lat": "39.920089",
		"lng": "116.426712",
		"address": "北京市东城区东二环银河SOHOA座2层10210室",
		"status": "",
		"store_type": "",
		"dining_type": "【北京朝阳门西餐】推荐,朝阳门西餐排行/大全/攻略-大众点评网",
		"url": "http://www.dianping.com/beijing/ch10/g116r1479o2"
	},
	"lnglat": [116.43293894029237, 39.921480514662576]
}, {
	"properties": {
		"seq": "64",
		"county": "东城区",
		"business_circle": "沙子口",
		"cuisine": "小吃",
		"name": "缘赵记",
		"lat": "39.863770",
		"lng": "116.395332",
		"address": "北京市东城区沙子口路8号",
		"status": "",
		"store_type": "",
		"dining_type": "【北京沙子口小吃】推荐,沙子口小吃排行/大全/攻略-大众点评网",
		"url": "http://www.dianping.com/beijing/ch10/g112r2875o2"
	},
	"lnglat": [116.40156929865165, 39.86517075729208]
}, {
	"properties": {
		"seq": "65",
		"county": "东城区",
		"business_circle": "地安门",
		"cuisine": "火锅",
		"name": "宏源南门涮肉（后海店）",
		"lat": "39.936730",
		"lng": "116.387690",
		"address": "北京市东城区南官房胡同1号什刹海茶艺酒吧街（银锭桥南）",
		"status": "",
		"store_type": "",
		"dining_type": "",
		"url": ""
	},
	"lnglat": [116.39393268807412, 39.93813049822073]
}, {
	"properties": {
		"seq": "66",
		"county": "东城区",
		"business_circle": "前门",
		"cuisine": "特色菜",
		"name": "Ms.Na",
		"lat": "39.896708",
		"lng": "116.389271",
		"address": "北京市东城区廊房头条21号院北京坊西区W6楼4层01号",
		"status": "",
		"store_type": "",
		"dining_type": "【北京前门特色菜】推荐,前门特色菜排行/大全/攻略-大众点评网",
		"url": "http://www.dianping.com/beijing/ch10/g34284r1503o2"
	},
	"lnglat": [116.3955096398281, 39.89810774019907]
}, {
	"properties": {
		"seq": "67",
		"county": "东城区",
		"business_circle": "王府井/东单",
		"cuisine": "西餐",
		"name": "TIAGO HOME KITCHEN(王府中環店)",
		"lat": "39.911148",
		"lng": "116.404798",
		"address": "北京市东城区王府井大街269号王府中环东座4层411b",
		"status": "",
		"store_type": "分店",
		"dining_type": "【北京王府井/东单西餐】推荐,王府井/东单西餐排行/大全/攻略-大众点评网",
		"url": "http://www.dianping.com/beijing/ch10/g116r1475o2"
	},
	"lnglat": [116.411041862219, 39.912552052545045]
}, {
	"properties": {
		"seq": "68",
		"county": "东城区",
		"business_circle": "东四十条",
		"cuisine": "特色菜",
		"name": "巴依老爷新疆美食(工体店)",
		"lat": "39.931772",
		"lng": "116.431922",
		"address": "北京市东城区工体北路新中大厦1层",
		"status": "",
		"store_type": "分店",
		"dining_type": "【北京东四十条特色菜】推荐,东四十条特色菜排行/大全/攻略-大众点评网",
		"url": "http://www.dianping.com/beijing/ch10/g34284r23021o2"
	},
	"lnglat": [116.43814216541314, 39.933157778928646]
}, {
	"properties": {
		"seq": "69",
		"county": "东城区",
		"business_circle": "王府井/东单",
		"cuisine": "北京菜",
		"name": "那家小馆(新闻大厦店)",
		"lat": "39.906085",
		"lng": "116.415912",
		"address": "北京市东城区建国门内大街26号新闻大厦24层",
		"status": "",
		"store_type": "",
		"dining_type": "【北京王府井/东单北京菜】推荐,王府井/东单北京菜排行/大全/攻略-大众点评网",
		"url": "http://www.dianping.com/beijing/ch10/g311r1475o2"
	},
	"lnglat": [116.42214945787929, 39.90748497693577]
}, {
	"properties": {
		"seq": "70",
		"county": "东城区",
		"business_circle": "王府井/东单",
		"cuisine": "云贵菜",
		"name": "束河人家(东单店)",
		"lat": "39.908644",
		"lng": "116.415195",
		"address": "北京市东城区北极阁胡同10号",
		"status": "",
		"store_type": "分店",
		"dining_type": "【北京王府井/东单云贵菜】推荐,王府井/东单云贵菜排行/大全/攻略-大众点评网",
		"url": "http://www.dianping.com/beijing/ch10/g6743r1475o2"
	},
	"lnglat": [116.42143336688436, 39.910044504753024]
}, {
	"properties": {
		"seq": "71",
		"county": "东城区",
		"business_circle": "角楼",
		"cuisine": "咖啡厅",
		"name": "故宫角楼咖啡",
		"lat": "39.921199",
		"lng": "116.390216",
		"address": "北京市北京市东城区景山前街",
		"status": "",
		"store_type": "",
		"dining_type": "",
		"url": ""
	},
	"lnglat": [116.39645833070702, 39.92260031508175]
}, {
	"properties": {
		"seq": "72",
		"county": "东城区",
		"business_circle": "东直门",
		"cuisine": "家常菜",
		"name": "老街兔盐帮菜",
		"lat": "39.939423",
		"lng": "116.432652",
		"address": "北京市东城区新中街甲1号",
		"status": "",
		"store_type": "",
		"dining_type": "【北京东直门家常菜】推荐,东直门家常菜排行/大全/攻略-大众点评网",
		"url": "http://www.dianping.com/beijing/ch10/g1783r2066o2"
	},
	"lnglat": [116.4388718634015, 39.940808121846516]
}, {
	"properties": {
		"seq": "73",
		"county": "东城区",
		"business_circle": "南锣鼓巷/鼓楼东大街",
		"cuisine": "人气餐厅",
		"name": "火烧云傣家菜(鼓楼店)",
		"lat": "39.940327",
		"lng": "116.387968",
		"address": "北京市东城区旧鼓楼大街174号",
		"status": "",
		"store_type": "分店",
		"dining_type": "【北京南锣鼓巷/鼓楼东大街人气餐厅】推荐,南锣鼓巷/鼓楼东大街人气餐厅排行/大全/攻略-大众点评网",
		"url": "http://www.dianping.com/beijing/ch10/g34032r23023o2"
	},
	"lnglat": [116.39421134143356, 39.94172781390562]
}, {
	"properties": {
		"seq": "74",
		"county": "东城区",
		"business_circle": "南锣鼓巷/鼓楼东大街",
		"cuisine": "人气餐厅",
		"name": "炙鼎·爆浆芝士烤肉(鼓楼店)",
		"lat": "39.939124",
		"lng": "116.392849",
		"address": "北京市东城区鼓楼东大街206号北京国际创意设计C座2层",
		"status": "",
		"store_type": "",
		"dining_type": "【北京南锣鼓巷/鼓楼东大街人气餐厅】推荐,南锣鼓巷/鼓楼东大街人气餐厅排行/大全/攻略-大众点评网",
		"url": "http://www.dianping.com/beijing/ch10/g34032r23023o2"
	},
	"lnglat": [116.39909496381556, 39.94052727929885]
}, {
	"properties": {
		"seq": "75",
		"county": "东城区",
		"business_circle": "前门",
		"cuisine": "人气餐厅",
		"name": "静一餐厅",
		"lat": "39.893796",
		"lng": "116.383099",
		"address": "北京市东城区琉璃厂东街2号",
		"status": "",
		"store_type": "",
		"dining_type": "【北京前门人气餐厅】推荐,前门人气餐厅排行/大全/攻略-大众点评网",
		"url": "http://www.dianping.com/beijing/ch10/g34032r1503o2"
	},
	"lnglat": [116.38933246043374, 39.89519139409363]
}, {
	"properties": {
		"seq": "76",
		"county": "东城区",
		"business_circle": "王府井/东单",
		"cuisine": "小吃",
		"name": "老滕家过桥米线",
		"lat": "39.910980",
		"lng": "116.405310",
		"address": "北京市东城区王府井大街176号丹耀大厦鸿豪食街3层",
		"status": "",
		"store_type": "",
		"dining_type": "【北京王府井/东单小吃】推荐,王府井/东单小吃排行/大全/攻略-大众点评网",
		"url": "http://www.dianping.com/beijing/ch10/g112r1475o2"
	},
	"lnglat": [116.41155372859683, 39.91238398902749]
}, {
	"properties": {
		"seq": "77",
		"county": "东城区",
		"business_circle": "王府井/东单",
		"cuisine": "小吃",
		"name": "故宫冰窖餐厅",
		"lat": "39.917768",
		"lng": "116.392142",
		"address": "北京市东城区北长街故宫博物院慈宁宫南侧",
		"status": "",
		"store_type": "",
		"dining_type": "【北京王府井/东单小吃】推荐,王府井/东单小吃排行/大全/攻略-大众点评网",
		"url": "http://www.dianping.com/beijing/ch10/g112r1475o2"
	},
	"lnglat": [116.39838491289626, 39.91917010371745]
}, {
	"properties": {
		"seq": "78",
		"county": "东城区",
		"business_circle": "和平里",
		"cuisine": "北京菜",
		"name": "瑞德烤鸭(和平里店)",
		"lat": "39.955390",
		"lng": "116.419246",
		"address": "北京市东城区和平里东街12号旅居酒店一层",
		"status": "",
		"store_type": "",
		"dining_type": "【北京和平里北京菜】推荐,和平里北京菜排行/大全/攻略-大众点评网",
		"url": "http://www.dianping.com/beijing/ch10/g311r2591o2"
	},
	"lnglat": [116.42548665118758, 39.956789754626286]
}, {
	"properties": {
		"seq": "79",
		"county": "东城区",
		"business_circle": "王府井/东单",
		"cuisine": "特色菜",
		"name": "好酒好蔡(王府中环店)",
		"lat": "39.910787",
		"lng": "116.404209",
		"address": "北京市东城区大甜水井胡同王府中环商场西座307",
		"status": "",
		"store_type": "",
		"dining_type": "【北京王府井/东单特色菜】推荐,王府井/东单特色菜排行/大全/攻略-大众点评网",
		"url": "http://www.dianping.com/beijing/ch10/g34284r1475o2"
	},
	"lnglat": [116.41045292714716, 39.912191087437776]
}, {
	"properties": {
		"seq": "80",
		"county": "东城区",
		"business_circle": "沙滩/美术馆灯市口",
		"cuisine": "其他美食",
		"name": "大董(王府井店)",
		"lat": "39.920773",
		"lng": "116.404367",
		"address": "北京市东城区王府井大街35号",
		"status": "",
		"store_type": "",
		"dining_type": "【北京沙滩/美术馆灯市口其他美食】推荐,沙滩/美术馆灯市口其他美食排行/大全/攻略-大众点评网",
		"url": "http://www.dianping.com/beijing/ch10/g118r23026o2"
	},
	"lnglat": [116.41061217298567, 39.92217749765331]
}, {
	"properties": {
		"seq": "81",
		"county": "东城区",
		"business_circle": "王府井/东单本帮",
		"cuisine": "江浙菜",
		"name": "外婆家(北京apm店)",
		"lat": "39.912500",
		"lng": "116.405135",
		"address": "北京市东城区王府井大街138号北京apmA区6层601",
		"status": "",
		"store_type": "分店",
		"dining_type": "【北京王府井/东单本帮江浙菜】推荐,王府井/东单本帮江浙菜排行/大全/攻略-大众点评网",
		"url": "http://www.dianping.com/beijing/ch10/g101r1475o2"
	},
	"lnglat": [116.41137896243258, 39.91390407473544]
}, {
	"properties": {
		"seq": "82",
		"county": "东城区",
		"business_circle": "崇文门",
		"cuisine": "面包甜点",
		"name": "新侨三宝乐面包店(新侨店)",
		"lat": "39.900535",
		"lng": "116.409998",
		"address": "北京市东城区东交民巷2号",
		"status": "",
		"store_type": "",
		"dining_type": "【北京崇文门面包甜点】推荐,崇文门面包甜点排行/大全/攻略-大众点评网",
		"url": "http://www.dianping.com/beijing/ch10/g117r1504o2"
	},
	"lnglat": [116.41623868502751, 39.90193747250813]
}, {
	"properties": {
		"seq": "83",
		"county": "东城区",
		"business_circle": "前门",
		"cuisine": "咖啡厅",
		"name": "Berry Beans",
		"lat": "39.893032",
		"lng": "116.386150",
		"address": "北京市东城区朱家胡同7号",
		"status": "",
		"store_type": "分店",
		"dining_type": "【北京前门咖啡厅】推荐,前门咖啡厅排行/大全/攻略-大众点评网",
		"url": "http://www.dianping.com/beijing/ch10/g132r1503o2"
	},
	"lnglat": [116.39238597296554, 39.894429626352064]
}, {
	"properties": {
		"seq": "84",
		"county": "东城区",
		"business_circle": "东直门",
		"cuisine": "西餐",
		"name": "曲廊院",
		"lat": "39.933066",
		"lng": "116.418860",
		"address": "北京市东城区东四十一条25号",
		"status": "",
		"store_type": "",
		"dining_type": "【北京东直门西餐】推荐,东直门西餐排行/大全/攻略-大众点评网",
		"url": "http://www.dianping.com/beijing/ch10/g116r2066o2"
	},
	"lnglat": [116.42509819338598, 39.93446515201815]
}, {
	"properties": {
		"seq": "85",
		"county": "东城区",
		"business_circle": "东直门",
		"cuisine": "火锅",
		"name": "北平三兄弟涮肉(簋街店)",
		"lat": "39.940021",
		"lng": "116.423543",
		"address": "北京市东城区东直门内大街5-6号",
		"status": "",
		"store_type": "分店",
		"dining_type": "【北京东直门火锅】推荐,东直门火锅排行/大全/攻略-大众点评网",
		"url": "http://www.dianping.com/beijing/ch10/g110r2066o2"
	},
	"lnglat": [116.42977677147393, 39.94141652383456]
}, {
	"properties": {
		"seq": "86",
		"county": "东城区",
		"business_circle": "王府井/东单",
		"cuisine": "人气餐厅",
		"name": "莆田餐厅(王府井店)",
		"lat": "39.911148",
		"lng": "116.404798",
		"address": "北京市东城区王府井大街269号王府中环东座四楼403b",
		"status": "",
		"store_type": "",
		"dining_type": "【北京王府井/东单人气餐厅】推荐,王府井/东单人气餐厅排行/大全/攻略-大众点评网",
		"url": "http://www.dianping.com/beijing/ch10/g34032r1475o2"
	},
	"lnglat": [116.411041862219, 39.912552052545045]
}, {
	"properties": {
		"seq": "87",
		"county": "东城区",
		"business_circle": "北新桥/簋街",
		"cuisine": "人气餐厅",
		"name": "铃木食堂(北新桥店)",
		"lat": "39.938936",
		"lng": "116.411329",
		"address": "北京市东城区东直门内大街288-29号",
		"status": "",
		"store_type": "分店",
		"dining_type": "【北京北新桥/簋街人气餐厅】推荐,北新桥/簋街人气餐厅排行/大全/攻略-大众点评网",
		"url": "http://www.dianping.com/beijing/ch10/g34032r23024o2"
	},
	"lnglat": [116.41757387047008, 39.94033960395164]
}, {
	"properties": {
		"seq": "88",
		"county": "东城区",
		"business_circle": "东四",
		"cuisine": "人气餐厅",
		"name": "炒豆合作社(东四总店)",
		"lat": "39.931747",
		"lng": "116.413263",
		"address": "北京市东城区东四北大街东四九条63号",
		"status": "",
		"store_type": "",
		"dining_type": "【北京东四人气餐厅】推荐,东四人气餐厅排行/大全/攻略-大众点评网",
		"url": "http://www.dianping.com/beijing/ch10/g34032r1477o2"
	},
	"lnglat": [116.41950573836829, 39.93314947601161]
}, {
	"properties": {
		"seq": "89",
		"county": "东城区",
		"business_circle": "崇文门本帮",
		"cuisine": "江浙菜",
		"name": "南京大牌档(崇文门国瑞店)",
		"lat": "39.896210",
		"lng": "116.413050",
		"address": "北京市东城区崇文门外大街18号国瑞城购物中心3层",
		"status": "",
		"store_type": "分店",
		"dining_type": "【北京崇文门本帮江浙菜】推荐,崇文门本帮江浙菜排行/大全/攻略-大众点评网",
		"url": "http://www.dianping.com/beijing/ch10/g101r1504o2"
	},
	"lnglat": [116.41928835174339, 39.89761105857988]
}, {
	"properties": {
		"seq": "90",
		"county": "东城区",
		"business_circle": "王府井/东单",
		"cuisine": "火锅",
		"name": "海底捞火锅(王府井in88店)",
		"lat": "39.915009",
		"lng": "116.404909",
		"address": "北京市东城区王府井大街银泰in88百货3层",
		"status": "",
		"store_type": "分店",
		"dining_type": "【北京王府井/东单火锅】推荐,王府井/东单火锅排行/大全/攻略-大众点评网",
		"url": "http://www.dianping.com/beijing/ch10/g110r1475o2"
	},
	"lnglat": [116.41115333154352, 39.91641320605389]
}, {
	"properties": {
		"seq": "91",
		"county": "东城区",
		"business_circle": "王府井/东单",
		"cuisine": "人气餐厅",
		"name": "The Rug Cafe(王府中环店)",
		"lat": "39.911750",
		"lng": "116.402804",
		"address": "北京市东城区大阮府胡同王府中环1层西座112室",
		"status": "",
		"store_type": "分店",
		"dining_type": "【北京王府井/东单人气餐厅】推荐,王府井/东单人气餐厅排行/大全/攻略-大众点评网",
		"url": "http://www.dianping.com/beijing/ch10/g34032r1475o2"
	},
	"lnglat": [116.4090482366584, 39.913154187217934]
}, {
	"properties": {
		"seq": "92",
		"county": "东城区",
		"business_circle": "朝阳门",
		"cuisine": "北京菜",
		"name": "东四民芳餐厅(朝阳门总店)",
		"lat": "39.923532",
		"lng": "116.424032",
		"address": "北京市东城区朝阳门内大街79号-2",
		"status": "",
		"store_type": "分店",
		"dining_type": "【北京朝阳门北京菜】推荐,朝阳门北京菜排行/大全/攻略-大众点评网",
		"url": "http://www.dianping.com/beijing/ch10/g311r1479o2"
	},
	"lnglat": [116.43026304428595, 39.924926391316696]
}, {
	"properties": {
		"seq": "93",
		"county": "东城区",
		"business_circle": "崇文门",
		"cuisine": "火锅",
		"name": "海底捞火锅(崇文门新世界百货店)",
		"lat": "39.896301",
		"lng": "116.411427",
		"address": "北京市东城区崇文门外大街3-5号新世界百货综合馆5层",
		"status": "",
		"store_type": "分店",
		"dining_type": "【北京崇文门火锅】推荐,崇文门火锅排行/大全/攻略-大众点评网",
		"url": "http://www.dianping.com/beijing/ch10/g110r1504o2"
	},
	"lnglat": [116.41766637684006, 39.89770276269335]
}, {
	"properties": {
		"seq": "94",
		"county": "东城区",
		"business_circle": "东四",
		"cuisine": "人气餐厅",
		"name": "北新桥卤煮老店",
		"lat": "39.935832",
		"lng": "116.410594",
		"address": "北京市东城区东四北大街141号",
		"status": "",
		"store_type": "分店",
		"dining_type": "【北京东四人气餐厅】推荐,东四人气餐厅排行/大全/攻略-大众点评网",
		"url": "http://www.dianping.com/beijing/ch10/g34032r1477o2"
	},
	"lnglat": [116.41683888019388, 39.93723575440913]
}, {
	"properties": {
		"seq": "95",
		"county": "东城区",
		"business_circle": "前门",
		"cuisine": "北京菜",
		"name": "北京全聚德(前门店)",
		"lat": "39.895216",
		"lng": "116.392072",
		"address": "北京市东城区前门大街30号",
		"status": "",
		"store_type": "分店",
		"dining_type": "【北京前门北京菜】推荐,前门北京菜排行/大全/攻略-大众点评网",
		"url": "http://www.dianping.com/beijing/ch10/g311r1503o2"
	},
	"lnglat": [116.39831200482458, 39.896617084943834]
}, {
	"properties": {
		"seq": "96",
		"county": "东城区",
		"business_circle": "东四",
		"cuisine": "人气餐厅",
		"name": "Susu",
		"lat": "39.926199",
		"lng": "116.405383",
		"address": "北京市东城区钱粮西巷10号",
		"status": "",
		"store_type": "",
		"dining_type": "【北京东四人气餐厅】推荐,东四人气餐厅排行/大全/攻略-大众点评网",
		"url": "http://www.dianping.com/beijing/ch10/g34032r1477o2"
	},
	"lnglat": [116.41162865278656, 39.92760361803102]
}, {
	"properties": {
		"seq": "97",
		"county": "东城区",
		"business_circle": "天坛",
		"cuisine": "火锅",
		"name": "南门涮肉(天坛店)",
		"lat": "39.872228",
		"lng": "116.404127",
		"address": "北京市东城区永定门东街东里13号楼1-2号",
		"status": "",
		"store_type": "分店",
		"dining_type": "【北京天坛火锅】推荐,天坛火锅排行/大全/攻略-大众点评网",
		"url": "http://www.dianping.com/beijing/ch10/g110r1505o2"
	},
	"lnglat": [116.4103660281392, 39.87363028410092]
}, {
	"properties": {
		"seq": "98",
		"county": "东城区",
		"business_circle": "前门",
		"cuisine": "小吃",
		"name": "六必居(前门店)",
		"lat": "39.894466",
		"lng": "116.391441",
		"address": "北京市东城区前门外粮食店街3号",
		"status": "",
		"store_type": "分店",
		"dining_type": "【北京前门小吃】推荐,前门小吃排行/大全/攻略-大众点评网",
		"url": "http://www.dianping.com/beijing/ch10/g112r1503o2"
	},
	"lnglat": [116.39768059407743, 39.89586676004984]
}, {
	"properties": {
		"seq": "99",
		"county": "东城区",
		"business_circle": "建国门/站本帮",
		"cuisine": "江浙菜",
		"name": "淮扬府*游园京梦(中粮广场店)",
		"lat": "39.905745",
		"lng": "116.423259",
		"address": "北京市东城区建国门内大街8号中粮广场C座一层",
		"status": "",
		"store_type": "分店",
		"dining_type": "【北京建国门/北京站本帮江浙菜】推荐,建国门/北京站本帮江浙菜排行/大全/攻略-大众点评网",
		"url": "http://www.dianping.com/beijing/ch10/g101r1476o2"
	},
	"lnglat": [116.42948876140244, 39.90713936477546]
}, {
	"properties": {
		"seq": "100",
		"county": "东城区",
		"business_circle": "崇文门",
		"cuisine": "火锅",
		"name": "蛙蛙叫·铜炉蛙锅(崇文门摩方店)",
		"lat": "39.898376",
		"lng": "116.411912",
		"address": "北京市东城区崇文门外大街1号楼五层L5/07",
		"status": "",
		"store_type": "",
		"dining_type": "【北京崇文门火锅】推荐,崇文门火锅排行/大全/攻略-大众点评网",
		"url": "http://www.dianping.com/beijing/ch10/g110r1504o2"
	},
	"lnglat": [116.41815135402112, 39.89977766028418]
}]