[{
	"properties": {
		"county": "东城区",
		"business_circle": "崇文门",
		"cuisine": "北京菜",
		"name": "便宜坊烤鸭店(新世界店)",
		"lat": "39.895432",
		"lng": "116.411655",
		"status": "",
		"store_type": "分店",
		"address": "北京市东城区崇文门外大街3-5号新世界百货青春馆3层",
		"dining_type": "【北京崇文门北京菜】推荐,崇文门北京菜排行/大全/攻略-大众点评网",
		"url": "http://www.dianping.com/beijing/ch10/g311r1504o2"
	},
	"lnglat": [116.4178941327754, 39.896833631744386]
}, {
	"properties": {
		"county": "东城区",
		"business_circle": "崇文门",
		"cuisine": "北京菜",
		"name": "便宜坊烤鸭店(哈德门店)",
		"lat": "39.897480",
		"lng": "116.413259",
		"status": "",
		"store_type": "分店",
		"address": "北京市东城区崇外大街16号便宜坊大厦4层",
		"dining_type": "【北京崇文门北京菜】推荐,崇文门北京菜排行/大全/攻略-大众点评网",
		"url": "http://www.dianping.com/beijing/ch10/g311r1504o2"
	},
	"lnglat": [116.4194973721524, 39.89888101769748]
}, {
	"properties": {
		"county": "东城区",
		"business_circle": "前门",
		"cuisine": "北京菜",
		"name": "便宜坊烤鸭(鲜鱼口店)",
		"lat": "39.894643",
		"lng": "116.392099",
		"status": "",
		"store_type": "分店",
		"address": "北京市东城区前门大街东侧鲜鱼口老字号餐饮一条街",
		"dining_type": "【北京前门北京菜】推荐,前门北京菜排行/大全/攻略-大众点评网",
		"url": "http://www.dianping.com/beijing/ch10/g311r1503o2"
	},
	"lnglat": [116.3983389448584, 39.89604407067644]
}, {
	"properties": {
		"county": "东城区",
		"business_circle": "天坛",
		"cuisine": "北京菜",
		"name": "便宜坊烤鸭店(玉蜓桥店)",
		"lat": "39.872508",
		"lng": "116.414583",
		"status": "",
		"store_type": "分店",
		"address": "北京市东城区天坛东路73号",
		"dining_type": "【北京天坛北京菜】推荐,天坛北京菜排行/大全/攻略-大众点评网",
		"url": "http://www.dianping.com/beijing/ch10/g311r1505o2"
	},
	"lnglat": [116.42081723938924, 39.87390713924624]
}, {
	"properties": {
		"county": "东城区",
		"business_circle": "天坛",
		"cuisine": "北京菜",
		"name": "便宜坊烤鸭店(幸福大街店)",
		"lat": "39.886010",
		"lng": "116.425151",
		"status": "",
		"store_type": "分店",
		"address": "北京市东城区幸福大街36号",
		"dining_type": "【北京天坛北京菜】推荐,天坛北京菜排行/大全/攻略-大众点评网",
		"url": "http://www.dianping.com/beijing/ch10/g311r1505o2"
	},
	"lnglat": [116.43137578674249, 39.887401628025785]
}, {
	"properties": {
		"county": "东城区",
		"business_circle": "天坛",
		"cuisine": "北京菜",
		"name": "便宜坊御膳饭庄",
		"lat": "39.887032",
		"lng": "116.403717",
		"status": "",
		"store_type": "",
		"address": "北京市东城区天坛路87号",
		"dining_type": "【北京天坛北京菜】推荐,天坛北京菜排行/大全/攻略-大众点评网",
		"url": "http://www.dianping.com/beijing/ch10/g311r1505o2"
	},
	"lnglat": [116.409957977318, 39.8884350435893]
}, {
	"properties": {
		"county": "东城区",
		"business_circle": "北新桥/簋街",
		"cuisine": "烧烤",
		"name": "烤肉宛饭庄(北新桥店)",
		"lat": "39.941064",
		"lng": "116.410360",
		"status": "",
		"store_type": "分店",
		"address": "北京市东城区雍和宫大街185号",
		"dining_type": "【北京北新桥/簋街烧烤】推荐,北新桥/簋街烧烤排行/大全/攻略-大众点评网",
		"url": "http://www.dianping.com/beijing/ch10/g508r23024o2"
	},
	"lnglat": [116.41660567087717, 39.94246804593729]
}, {
	"properties": {
		"county": "东城区",
		"business_circle": "王府井/东单",
		"cuisine": "北京菜",
		"name": "都一处(王府井店)",
		"lat": "39.910252",
		"lng": "116.403598",
		"status": "(尚未营业)",
		"store_type": "",
		"address": "北京市东城区王府井大街277号院平房1号院—1",
		"dining_type": "【北京王府井/东单北京菜】推荐,王府井/东单北京菜排行/大全/攻略[第5页]-大众点评网",
		"url": "http://www.dianping.com/beijing/ch10/g311r1475o2p5"
	},
	"lnglat": [116.40984195360065, 39.91165610050066]
}, {
	"properties": {
		"county": "东城区",
		"business_circle": "前门",
		"cuisine": "家常菜",
		"name": "都一处烧麦馆(前门店)",
		"lat": "39.894771",
		"lng": "116.391995",
		"status": "",
		"store_type": "分店",
		"address": "北京市东城区前门大街38号",
		"dining_type": "【北京前门家常菜】推荐,前门家常菜排行/大全/攻略-大众点评网",
		"url": "http://www.dianping.com/beijing/ch10/g1783r1503o2"
	},
	"lnglat": [116.39823491077404, 39.89617202993865]
}, {
	"properties": {
		"county": "东城区",
		"business_circle": "天坛",
		"cuisine": "家常菜",
		"name": "都一处烧麦馆(永定门店)",
		"lat": "39.872010",
		"lng": "116.402632",
		"status": "",
		"store_type": "分店",
		"address": "北京市东城区永定门内东街中里15号",
		"dining_type": "【北京天坛家常菜】推荐,天坛家常菜排行/大全/攻略-大众点评网",
		"url": "http://www.dianping.com/beijing/ch10/g1783r1505o2"
	},
	"lnglat": [116.40887118846675, 39.87341232669675]
}, {
	"properties": {
		"county": "东城区",
		"business_circle": "南锣鼓巷/鼓楼东大街",
		"cuisine": "北京菜",
		"name": "庆云楼(什刹海店)",
		"lat": "39.937512",
		"lng": "116.387882",
		"status": "",
		"store_type": "",
		"address": "北京市东城区什刹海前海东沿22号2层-4层",
		"dining_type": "【北京南锣鼓巷/鼓楼东大街北京菜】推荐,南锣鼓巷/鼓楼东大街北京菜排行/大全/攻略-大众点评网",
		"url": "http://www.dianping.com/beijing/ch10/g311r23023o2"
	},
	"lnglat": [116.39412492252004, 39.93891264864063]
}, {
	"properties": {
		"county": "东城区",
		"business_circle": "前门",
		"cuisine": "烧烤",
		"name": "烤肉季(鲜鱼口店)",
		"lat": "39.894577",
		"lng": "116.393632",
		"status": "",
		"store_type": "分店",
		"address": "北京市东城区鲜鱼口胡同72号",
		"dining_type": "【北京前门烧烤】推荐,前门烧烤排行/大全/攻略-大众点评网",
		"url": "http://www.dianping.com/beijing/ch10/g508r1503o2"
	},
	"lnglat": [116.39987261396898, 39.89597870309031]
}, {
	"properties": {
		"county": "东城区",
		"business_circle": "王府井/东单",
		"cuisine": "北京菜",
		"name": "北京全聚德(王府井店)",
		"lat": "39.910852",
		"lng": "116.405640",
		"status": "",
		"store_type": "分店",
		"address": "北京市东城区王府井大街帅府园胡同9号",
		"dining_type": "【北京王府井/东单北京菜】推荐,王府井/东单北京菜排行/大全/攻略-大众点评网",
		"url": "http://www.dianping.com/beijing/ch10/g311r1475o2"
	},
	"lnglat": [116.41188363218703, 39.91225594107783]
}, {
	"properties": {
		"county": "东城区",
		"business_circle": "王府井/东单",
		"cuisine": "北京菜",
		"name": "全聚德烤鸭",
		"lat": "39.909919",
		"lng": "116.405562",
		"status": "",
		"store_type": "",
		"address": "北京市东城区王府井大街与王府井小吃街交叉口东50米",
		"dining_type": "【北京王府井/东单北京菜】推荐,王府井/东单北京菜排行/大全/攻略[第3页]-大众点评网",
		"url": "http://www.dianping.com/beijing/ch10/g311r1475o2p3"
	},
	"lnglat": [116.41180553269416, 39.911322911352094]
}, {
	"properties": {
		"county": "东城区",
		"business_circle": "前门",
		"cuisine": "北京菜",
		"name": "北京全聚德(前门店)",
		"lat": "39.895216",
		"lng": "116.392072",
		"status": "",
		"store_type": "分店",
		"address": "北京市东城区前门大街30号",
		"dining_type": "【北京前门北京菜】推荐,前门北京菜排行/大全/攻略-大众点评网",
		"url": "http://www.dianping.com/beijing/ch10/g311r1503o2"
	},
	"lnglat": [116.39831200482458, 39.896617084943834]
}, {
	"properties": {
		"county": "东城区",
		"business_circle": "前门",
		"cuisine": "北京菜",
		"name": "北京全聚德(和平门店)",
		"lat": "39.897820",
		"lng": "116.378303",
		"status": "",
		"store_type": "分店",
		"address": "北京市东城区前门西大街14号楼",
		"dining_type": "【北京前门北京菜】推荐,前门北京菜排行/大全/攻略-大众点评网",
		"url": "http://www.dianping.com/beijing/ch10/g311r1503o2"
	},
	"lnglat": [116.38453198885851, 39.89921131174413]
}, {
	"properties": {
		"county": "东城区",
		"business_circle": "前门",
		"cuisine": "北京菜",
		"name": "全聚德(天安门店)",
		"lat": "39.900535",
		"lng": "116.394098",
		"status": "",
		"store_type": "分店",
		"address": "北京市东城区东交民巷44号国家博物馆南",
		"dining_type": "【北京前门北京菜】推荐,前门北京菜排行/大全/攻略-大众点评网",
		"url": "http://www.dianping.com/beijing/ch10/g311r1503o2"
	},
	"lnglat": [116.40033955472907, 39.901937147459726]
}, {
	"properties": {
		"county": "东城区",
		"business_circle": "前门",
		"cuisine": "北京菜",
		"name": "全聚德",
		"lat": "39.896941",
		"lng": "116.388522",
		"status": "",
		"store_type": "",
		"address": "北京市东城区煤市街排子胡同12号",
		"dining_type": "【北京前门北京菜】推荐,前门北京菜排行/大全/攻略[第2页]-大众点评网",
		"url": "http://www.dianping.com/beijing/ch10/g311r1503o2p2"
	},
	"lnglat": [116.39476018610682, 39.89834031927809]
}, {
	"properties": {
		"county": "东城区",
		"business_circle": "建国门/站",
		"cuisine": "北京菜",
		"name": "全聚德",
		"lat": "39.901734",
		"lng": "116.421428",
		"status": "",
		"store_type": "",
		"address": "北京市东城区船板胡同2号北京站1层3候车室入口处",
		"dining_type": "【北京建国门/北京站北京菜】推荐,建国门/北京站北京菜排行/大全/攻略-大众点评网",
		"url": "http://www.dianping.com/beijing/ch10/g311r1476o2"
	},
	"lnglat": [116.42765944357303, 39.903129808668254]
}, {
	"properties": {
		"county": "东城区",
		"business_circle": "东四",
		"cuisine": "北京菜",
		"name": "北京全聚德",
		"lat": "39.927406",
		"lng": "116.411340",
		"status": "",
		"store_type": "",
		"address": "北京市东城区东四北大街370号",
		"dining_type": "【北京东四北京菜】推荐,东四北京菜排行/大全/攻略-大众点评网",
		"url": "http://www.dianping.com/beijing/ch10/g311r1477o2"
	},
	"lnglat": [116.4175833927402, 39.92880913422512]
}, {
	"properties": {
		"county": "东城区",
		"business_circle": "王府井/东单",
		"cuisine": "火锅",
		"name": "东来顺饭庄(王府井店)",
		"lat": "39.909748",
		"lng": "116.405293",
		"status": "",
		"store_type": "分店",
		"address": "北京市东城区王府井大街198号",
		"dining_type": "【北京王府井/东单火锅】推荐,王府井/东单火锅排行/大全/攻略-大众点评网",
		"url": "http://www.dianping.com/beijing/ch10/g110r1475o2"
	},
	"lnglat": [116.41153657545658, 39.91115193800339]
}, {
	"properties": {
		"county": "东城区",
		"business_circle": "王府井/东单",
		"cuisine": "火锅",
		"name": "东来顺饭庄(新东安总店)",
		"lat": "39.913835",
		"lng": "116.405461",
		"status": "",
		"store_type": "分店",
		"address": "北京市东城区王府井大街138号北京apm5层542-547",
		"dining_type": "【北京王府井/东单火锅】推荐,王府井/东单火锅排行/大全/攻略-大众点评网",
		"url": "http://www.dianping.com/beijing/ch10/g110r1475o2"
	},
	"lnglat": [116.41170505679996, 39.91523909230154]
}, {
	"properties": {
		"county": "东城区",
		"business_circle": "王府井/东单",
		"cuisine": "火锅",
		"name": "东来顺饭庄(华龙街店)",
		"lat": "39.910492",
		"lng": "116.400923",
		"status": "",
		"store_type": "分店",
		"address": "北京市东城区南河沿大街华龙街E座",
		"dining_type": "【北京王府井/东单火锅】推荐,王府井/东单火锅排行/大全/攻略[第2页]-大众点评网",
		"url": "http://www.dianping.com/beijing/ch10/g110r1475o2p2"
	},
	"lnglat": [116.40716715504877, 39.91189607571487]
}, {
	"properties": {
		"county": "东城区",
		"business_circle": "前门",
		"cuisine": "火锅",
		"name": "东来顺饭庄(大栅栏店)",
		"lat": "39.894660",
		"lng": "116.390668",
		"status": "",
		"store_type": "分店",
		"address": "北京市东城区大栅栏7号吉龙老栅栏商城2楼",
		"dining_type": "【北京前门火锅】推荐,前门火锅排行/大全/攻略-大众点评网",
		"url": "http://www.dianping.com/beijing/ch10/g110r1503o2"
	},
	"lnglat": [116.39690720471124, 39.89606039100949]
}, {
	"properties": {
		"county": "东城区",
		"business_circle": "前门",
		"cuisine": "火锅",
		"name": "东来顺饭庄(前门大街店)",
		"lat": "39.891019",
		"lng": "116.391908",
		"status": "",
		"store_type": "分店",
		"address": "北京市东城区前门大街143号2层",
		"dining_type": "【北京前门火锅】推荐,前门火锅排行/大全/攻略-大众点评网",
		"url": "http://www.dianping.com/beijing/ch10/g110r1503o2"
	},
	"lnglat": [116.39814739027202, 39.89241981653096]
}, {
	"properties": {
		"county": "东城区",
		"business_circle": "前门",
		"cuisine": "火锅",
		"name": "东来顺饭庄(天安门店)",
		"lat": "39.900535",
		"lng": "116.394098",
		"status": "",
		"store_type": "分店",
		"address": "北京市东城区东交民巷44号4门",
		"dining_type": "【北京前门火锅】推荐,前门火锅排行/大全/攻略-大众点评网",
		"url": "http://www.dianping.com/beijing/ch10/g110r1503o2"
	},
	"lnglat": [116.40033955472907, 39.901937147459726]
}, {
	"properties": {
		"county": "东城区",
		"business_circle": "东四",
		"cuisine": "火锅",
		"name": "东来顺饭庄(东四店)",
		"lat": "39.922316",
		"lng": "116.411623",
		"status": "",
		"store_type": "",
		"address": "北京市东城区东四南大街8号一层",
		"dining_type": "【北京东四火锅】推荐,东四火锅排行/大全/攻略-大众点评网",
		"url": "http://www.dianping.com/beijing/ch10/g110r1477o2"
	},
	"lnglat": [116.4178655787927, 39.92371881241639]
}, {
	"properties": {
		"county": "东城区",
		"business_circle": "和平里",
		"cuisine": "火锅",
		"name": "东来顺饭庄(林达店)",
		"lat": "39.954870",
		"lng": "116.426575",
		"status": "",
		"store_type": "分店",
		"address": "北京市东城区东土城路8号林达大厦一层",
		"dining_type": "【北京和平里火锅】推荐,和平里火锅排行/大全/攻略-大众点评网",
		"url": "http://www.dianping.com/beijing/ch10/g110r2591o2"
	},
	"lnglat": [116.43280656971291, 39.956263061239454]
}, {
	"properties": {
		"county": "东城区",
		"business_circle": "天坛",
		"cuisine": "火锅",
		"name": "东来顺饭庄(天坛店)",
		"lat": "39.886771",
		"lng": "116.398257",
		"status": "",
		"store_type": "分店",
		"address": "北京市东城区天坛路91号",
		"dining_type": "【北京天坛火锅】推荐,天坛火锅排行/大全/攻略-大众点评网",
		"url": "http://www.dianping.com/beijing/ch10/g110r1505o2"
	},
	"lnglat": [116.40449791108186, 39.888173656733635]
}, {
	"properties": {
		"county": "东城区",
		"business_circle": "王府井/东单",
		"cuisine": "鲁菜",
		"name": "丰泽园饭店(王府井店)",
		"lat": "39.908453",
		"lng": "116.404760",
		"status": "",
		"store_type": "",
		"address": "北京市东城区王府井大街301号王府商厦五层",
		"dining_type": "【北京王府井/东单鲁菜】推荐,王府井/东单鲁菜排行/大全/攻略-大众点评网",
		"url": "http://www.dianping.com/beijing/ch10/g26483r1475o2"
	},
	"lnglat": [116.41100352630973, 39.90985693990313]
}, {
	"properties": {
		"county": "东城区",
		"business_circle": "前门",
		"cuisine": "鲁菜",
		"name": "丰泽园饭店",
		"lat": "39.889276",
		"lng": "116.388508",
		"status": "",
		"store_type": "",
		"address": "北京市东城区珠市口西大街83号",
		"dining_type": "【北京前门鲁菜】推荐,前门鲁菜排行/大全/攻略-大众点评网",
		"url": "http://www.dianping.com/beijing/ch10/g26483r1503o2"
	},
	"lnglat": [116.39474520069815, 39.89067495573699]
}, {
	"properties": {
		"county": "东城区",
		"business_circle": "王府井/东单",
		"cuisine": "鲁菜",
		"name": "丰泽园饭店(王府井店)",
		"lat": "39.908453",
		"lng": "116.404760",
		"status": "",
		"store_type": "",
		"address": "北京市东城区王府井大街301号王府商厦五层",
		"dining_type": "【北京王府井/东单鲁菜】推荐,王府井/东单鲁菜排行/大全/攻略-大众点评网",
		"url": "http://www.dianping.com/beijing/ch10/g26483r1475o2"
	},
	"lnglat": [116.41100352630973, 39.90985693990313]
}, {
	"properties": {
		"county": "东城区",
		"business_circle": "前门",
		"cuisine": "家常菜",
		"name": "仿膳饭庄",
		"lat": "39.901328",
		"lng": "116.394504",
		"status": "",
		"store_type": "",
		"address": "北京市东城区东交民巷37号",
		"dining_type": "【北京前门家常菜】推荐,前门家常菜排行/大全/攻略-大众点评网",
		"url": "http://www.dianping.com/beijing/ch10/g1783r1503o2"
	},
	"lnglat": [116.40074580470336, 39.902730326981036]
}, {
	"properties": {
		"county": "东城区",
		"business_circle": "前门",
		"cuisine": "火锅",
		"name": "壹条龙饭庄(前门大街店)",
		"lat": "39.895604",
		"lng": "116.391631",
		"status": "",
		"store_type": "分店",
		"address": "北京市东城区前门大街27号",
		"dining_type": "【北京前门火锅】推荐,前门火锅排行/大全/攻略[第2页]-大众点评网",
		"url": "http://www.dianping.com/beijing/ch10/g110r1503o2p2"
	},
	"lnglat": [116.39787083611773, 39.897004901480834]
}, {
	"properties": {
		"county": "东城区",
		"business_circle": "前门",
		"cuisine": "火锅",
		"name": "壹条龙饭庄(台基厂店)",
		"lat": "39.899458",
		"lng": "116.403829",
		"status": "",
		"store_type": "分店",
		"address": "北京市东城区前门东大街2号楼首都大酒店斜对面",
		"dining_type": "【北京前门火锅】推荐,前门火锅排行/大全/攻略[第2页]-大众点评网",
		"url": "http://www.dianping.com/beijing/ch10/g110r1503o2p2"
	},
	"lnglat": [116.41007154414, 39.900861613501675]
}, {
	"properties": {
		"county": "东城区",
		"business_circle": "前门",
		"cuisine": "鲁菜",
		"name": "泰丰楼",
		"lat": "39.898915",
		"lng": "116.382340",
		"status": "",
		"store_type": "",
		"address": "北京市东城区前门西大街2号",
		"dining_type": "【北京前门鲁菜】推荐,前门鲁菜排行/大全/攻略-大众点评网",
		"url": "http://www.dianping.com/beijing/ch10/g26483r1503o2"
	},
	"lnglat": [116.38857339389621, 39.900310008807836]
}, {
	"properties": {
		"county": "东城区",
		"business_circle": "王府井/东单川菜",
		"cuisine": "川菜",
		"name": "峨嵋酒家(王府井店)",
		"lat": "39.914272",
		"lng": "116.410593",
		"status": "",
		"store_type": "分店",
		"address": "北京市东城区王府井大街金鱼胡同3号和平宾馆1楼东侧",
		"dining_type": "【北京王府井/东单川菜】推荐,王府井/东单川菜排行/大全/攻略-大众点评网",
		"url": "http://www.dianping.com/beijing/ch10/g102r1475o2"
	},
	"lnglat": [116.41683513018043, 39.915674866869594]
}, {
	"properties": {
		"county": "东城区",
		"business_circle": "广渠门外",
		"cuisine": "小吃",
		"name": "力力豆花庄(广渠门店)",
		"lat": "39.927193",
		"lng": "116.409748",
		"status": "",
		"store_type": "",
		"address": "北京市东城区",
		"dining_type": "【北京广渠门外小吃】推荐,广渠门外小吃排行/大全/攻略-大众点评网",
		"url": "http://www.dianping.com/beijing/ch10/g112r89473o2"
	},
	"lnglat": [116.41599220701038, 39.92859669077839]
}, {
	"properties": {
		"county": "东城区",
		"business_circle": "前门川菜",
		"cuisine": "川菜",
		"name": "力力餐厅(前门店)",
		"lat": "39.894637",
		"lng": "116.393536",
		"status": "",
		"store_type": "",
		"address": "北京市东城区鲜鱼口大街B9号",
		"dining_type": "【北京前门川菜】推荐,前门川菜排行/大全/攻略-大众点评网",
		"url": "http://www.dianping.com/beijing/ch10/g102r1503o2"
	},
	"lnglat": [116.39977658278697, 39.89603866891859]
}, {
	"properties": {
		"county": "东城区",
		"business_circle": "北新桥/簋街",
		"cuisine": "小吃",
		"name": "白魁老号饭庄(交道口店)",
		"lat": "39.932319",
		"lng": "116.402790",
		"status": "",
		"store_type": "分店",
		"address": "北京市东城区交道口南大街158号",
		"dining_type": "【北京北新桥/簋街小吃】推荐,北新桥/簋街小吃排行/大全/攻略-大众点评网",
		"url": "http://www.dianping.com/beijing/ch10/g112r23024o2"
	},
	"lnglat": [116.40903686227432, 39.93372404125226]
}, {
	"properties": {
		"county": "东城区",
		"business_circle": "安定门",
		"cuisine": "小吃",
		"name": "白魁老号饭庄(安内店)",
		"lat": "39.942265",
		"lng": "116.401952",
		"status": "",
		"store_type": "分店",
		"address": "北京市东城区安定门内大街195号",
		"dining_type": "【北京安定门小吃】推荐,安定门小吃排行/大全/攻略-大众点评网",
		"url": "http://www.dianping.com/beijing/ch10/g112r1478o2"
	},
	"lnglat": [116.40820019067503, 39.94367043260445]
}, {
	"properties": {
		"county": "东城区",
		"business_circle": "前门",
		"cuisine": "小吃",
		"name": "茶汤李京味餐厅（1796宴乐居店）(1796宴乐居店)",
		"lat": "39.894501",
		"lng": "116.390478",
		"status": "",
		"store_type": "分店",
		"address": "北京市东城区大栅栏18号2层",
		"dining_type": "【北京前门小吃】推荐,前门小吃排行/大全/攻略[第2页]-大众点评网",
		"url": "http://www.dianping.com/beijing/ch10/g112r1503o2p2"
	},
	"lnglat": [116.39671707799195, 39.8959012870633]
}, {
	"properties": {
		"county": "东城区",
		"business_circle": "广渠门内",
		"cuisine": "北京菜",
		"name": "茶汤李京味餐厅(夕照寺店)",
		"lat": "39.887967",
		"lng": "116.435124",
		"status": "暂停营业",
		"store_type": "",
		"address": "北京市东城区夕照寺中街4号",
		"dining_type": "【北京广渠门内北京菜】推荐,广渠门内北京菜排行/大全/攻略-大众点评网",
		"url": "http://www.dianping.com/beijing/ch10/g311r2590o2"
	},
	"lnglat": [116.44133278992727, 39.88934647533552]
}, {
	"properties": {
		"county": "东城区",
		"business_circle": "和平里",
		"cuisine": "北京菜",
		"name": "茶汤李京味餐厅(和平里店)",
		"lat": "39.960585",
		"lng": "116.413214",
		"status": "",
		"store_type": "",
		"address": "北京市东城区青年沟路和平里七区三十号楼1号底商",
		"dining_type": "【北京和平里北京菜】推荐,和平里北京菜排行/大全/攻略-大众点评网",
		"url": "http://www.dianping.com/beijing/ch10/g311r2591o2"
	},
	"lnglat": [116.41946045365763, 39.96198864493348]
}, {
	"properties": {
		"county": "东城区",
		"business_circle": "王府井/东单",
		"cuisine": "小吃",
		"name": "天兴居",
		"lat": "39.910173",
		"lng": "116.404570",
		"status": "",
		"store_type": "",
		"address": "北京市东城区王府井大街277号",
		"dining_type": "【北京王府井/东单小吃】推荐,王府井/东单小吃排行/大全/攻略[第4页]-大众点评网",
		"url": "http://www.dianping.com/beijing/ch10/g112r1475o2p4"
	},
	"lnglat": [116.41081378313704, 39.91157703191887]
}, {
	"properties": {
		"county": "东城区",
		"business_circle": "前门",
		"cuisine": "小吃",
		"name": "天兴居(鲜鱼口街店)",
		"lat": "39.894829",
		"lng": "116.393475",
		"status": "",
		"store_type": "分店",
		"address": "北京市东城区鲜鱼口街81-83号",
		"dining_type": "【北京前门小吃】推荐,前门小吃排行/大全/攻略-大众点评网",
		"url": "http://www.dianping.com/beijing/ch10/g112r1503o2"
	},
	"lnglat": [116.39971558232602, 39.89623065408215]
}, {
	"properties": {
		"county": "东城区",
		"business_circle": "东四",
		"cuisine": "小吃",
		"name": "天兴居(东四十条店)",
		"lat": "39.932838",
		"lng": "116.411119",
		"status": "",
		"store_type": "",
		"address": "北京市东城区东四北大街168号",
		"dining_type": "【北京东四小吃】推荐,东四小吃排行/大全/攻略-大众点评网",
		"url": "http://www.dianping.com/beijing/ch10/g112r1477o2"
	},
	"lnglat": [116.41736321126925, 39.93424144010865]
}, {
	"properties": {
		"county": "东城区",
		"business_circle": "天坛",
		"cuisine": "小吃",
		"name": "天兴居(天坛东路店)",
		"lat": "39.872508",
		"lng": "116.414583",
		"status": "",
		"store_type": "分店",
		"address": "北京市东城区天坛东路73号",
		"dining_type": "【北京天坛小吃】推荐,天坛小吃排行/大全/攻略-大众点评网",
		"url": "http://www.dianping.com/beijing/ch10/g112r1505o2"
	},
	"lnglat": [116.42081723938924, 39.87390713924624]
}, {
	"properties": {
		"county": "东城区",
		"business_circle": "崇文门",
		"cuisine": "下午茶",
		"name": "奶酪魏(崇文门)",
		"lat": "39.899614",
		"lng": "116.415495",
		"status": "暂停营业",
		"store_type": "分店",
		"address": "北京市东城区崇文门北羊市口街48号",
		"dining_type": "【北京崇文门下午茶】推荐,崇文门下午茶排行/大全/攻略[第7页]-大众点评网",
		"url": "http://www.dianping.com/beijing/ch10/g34014r1504o2p7"
	},
	"lnglat": [116.42173197597238, 39.90101393454954]
}, {
	"properties": {
		"county": "东城区",
		"business_circle": "前门",
		"cuisine": "小吃",
		"name": "爆肚冯(1796宴乐居店)",
		"lat": "39.894400",
		"lng": "116.390315",
		"status": "",
		"store_type": "分店",
		"address": "北京市东城区大栅栏街18号2层",
		"dining_type": "【北京前门小吃】推荐,前门小吃排行/大全/攻略-大众点评网",
		"url": "http://www.dianping.com/beijing/ch10/g112r1503o2"
	},
	"lnglat": [116.39655397232097, 39.89580019834745]
}, {
	"properties": {
		"county": "东城区",
		"business_circle": "前门",
		"cuisine": "火锅",
		"name": "清真爆肚冯(前门总店)",
		"lat": "39.895553",
		"lng": "116.389838",
		"status": "",
		"store_type": "",
		"address": "北京市东城区廊房二条56号",
		"dining_type": "【北京前门火锅】推荐,前门火锅排行/大全/攻略-大众点评网",
		"url": "http://www.dianping.com/beijing/ch10/g110r1503o2"
	},
	"lnglat": [116.3960768398159, 39.89695299912911]
}, {
	"properties": {
		"county": "东城区",
		"business_circle": "天坛",
		"cuisine": "小吃",
		"name": "锦馨豆汁",
		"lat": "39.886716",
		"lng": "116.406346",
		"status": "",
		"store_type": "",
		"address": "北京市东城区天坛路天坛公园北门西侧",
		"dining_type": "【北京天坛小吃】推荐,天坛小吃排行/大全/攻略[第2页]-大众点评网",
		"url": "http://www.dianping.com/beijing/ch10/g112r1505o2p2"
	},
	"lnglat": [116.41258636424348, 39.88811874186433]
}, {
	"properties": {
		"county": "东城区",
		"business_circle": "天坛",
		"cuisine": "小吃",
		"name": "锦馨豆汁",
		"lat": "39.895007",
		"lng": "116.394423",
		"status": "",
		"store_type": "",
		"address": "北京市东城区前门东路与鲜鱼口街交叉口西50米",
		"dining_type": "【北京天坛小吃】推荐,天坛小吃排行/大全/攻略[第4页]-大众点评网",
		"url": "http://www.dianping.com/beijing/ch10/g112r1505o2p4"
	},
	"lnglat": [116.40066397023315, 39.89640901253935]
}, {
	"properties": {
		"county": "东城区",
		"business_circle": "崇文门",
		"cuisine": "小吃",
		"name": "锦芳小吃(磁器口店)",
		"lat": "39.891121",
		"lng": "116.410973",
		"status": "",
		"store_type": "分店",
		"address": "北京市东城区珠市口东大街磁器口大都市街南一楼",
		"dining_type": "【北京崇文门小吃】推荐,崇文门小吃排行/大全/攻略-大众点评网",
		"url": "http://www.dianping.com/beijing/ch10/g112r1504o2"
	},
	"lnglat": [116.41721197366797, 39.89252269779955]
}, {
	"properties": {
		"county": "东城区",
		"business_circle": "前门",
		"cuisine": "小吃",
		"name": "锦芳(鲜鱼口店)",
		"lat": "39.894877",
		"lng": "116.393327",
		"status": "",
		"store_type": "",
		"address": "北京市东城区鲜鱼口街85号",
		"dining_type": "【北京前门小吃】推荐,前门小吃排行/大全/攻略[第2页]-大众点评网",
		"url": "http://www.dianping.com/beijing/ch10/g112r1503o2p2"
	},
	"lnglat": [116.39956752716543, 39.89627859822362]
}, {
	"properties": {
		"county": "东城区",
		"business_circle": "前门",
		"cuisine": "小吃",
		"name": "锦芳小吃外卖(前门)",
		"lat": "39.896866",
		"lng": "116.391678",
		"status": "",
		"store_type": "",
		"address": "北京市东城区前门大街1号-1外卖窗口",
		"dining_type": "【北京前门小吃】推荐,前门小吃排行/大全/攻略[第3页]-大众点评网",
		"url": "http://www.dianping.com/beijing/ch10/g112r1503o2p3"
	},
	"lnglat": [116.39791802061512, 39.898266980951156]
}, {
	"properties": {
		"county": "东城区",
		"business_circle": "建国门/站",
		"cuisine": "小吃",
		"name": "庆丰包子铺(北京站店)",
		"lat": "39.902352",
		"lng": "116.420417",
		"status": "",
		"store_type": "",
		"address": "北京市东城区北京站西街北京站内",
		"dining_type": "【北京建国门/北京站小吃】推荐,建国门/北京站小吃排行/大全/攻略-大众点评网",
		"url": "http://www.dianping.com/beijing/ch10/g112r1476o2"
	},
	"lnglat": [116.4266496520182, 39.9037486671987]
}, {
	"properties": {
		"county": "东城区",
		"business_circle": "王府井/东单",
		"cuisine": "小吃",
		"name": "庆丰包子铺(东单店)",
		"lat": "39.908483",
		"lng": "116.412003",
		"status": "",
		"store_type": "",
		"address": "北京市东城区东单北大街126号",
		"dining_type": "【北京王府井/东单小吃】推荐,王府井/东单小吃排行/大全/攻略-大众点评网",
		"url": "http://www.dianping.com/beijing/ch10/g112r1475o2"
	},
	"lnglat": [116.41824358672979, 39.90988506989601]
}, {
	"properties": {
		"county": "东城区",
		"business_circle": "崇文门",
		"cuisine": "小吃",
		"name": "庆丰包子铺(崇文门店)",
		"lat": "39.898093",
		"lng": "116.409274",
		"status": "",
		"store_type": "",
		"address": "北京市东城区崇文门东打磨厂街",
		"dining_type": "【北京崇文门小吃】推荐,崇文门小吃排行/大全/攻略-大众点评网",
		"url": "http://www.dianping.com/beijing/ch10/g112r1504o2"
	},
	"lnglat": [116.41551471913297, 39.89949559003722]
}, {
	"properties": {
		"county": "东城区",
		"business_circle": "东直门",
		"cuisine": "小吃",
		"name": "庆丰包子铺(春秀路店)",
		"lat": "39.938559",
		"lng": "116.438052",
		"status": "",
		"store_type": "",
		"address": "北京市东城区春秀路甲11号",
		"dining_type": "【北京东直门小吃】推荐,东直门小吃排行/大全/攻略[第2页]-大众点评网",
		"url": "http://www.dianping.com/beijing/ch10/g112r2066o2p2"
	},
	"lnglat": [116.44426143348247, 39.93993625272775]
}, {
	"properties": {
		"county": "东城区",
		"business_circle": "朝阳门",
		"cuisine": "小吃",
		"name": "庆丰包子铺(朝阳门店)",
		"lat": "39.921140",
		"lng": "116.425437",
		"status": "",
		"store_type": "",
		"address": "北京市东城区东水井胡同5号楼102室",
		"dining_type": "【北京朝阳门小吃】推荐,朝阳门小吃排行/大全/攻略-大众点评网",
		"url": "http://www.dianping.com/beijing/ch10/g112r1479o2"
	},
	"lnglat": [116.43166586790377, 39.92253289862831]
}, {
	"properties": {
		"county": "东城区",
		"business_circle": "东直门",
		"cuisine": "小吃",
		"name": "庆丰包子铺",
		"lat": "39.940706",
		"lng": "116.429105",
		"status": "",
		"store_type": "",
		"address": "北京市东城区东直门外大街东直门交通枢纽中心1楼",
		"dining_type": "【北京东直门小吃】推荐,东直门小吃排行/大全/攻略[第3页]-大众点评网",
		"url": "http://www.dianping.com/beijing/ch10/g112r2066o2p3"
	},
	"lnglat": [116.43533095594591, 39.942095644845594]
}, {
	"properties": {
		"county": "东城区",
		"business_circle": "东直门",
		"cuisine": "小吃",
		"name": "庆丰包子铺(海运仓店)",
		"lat": "39.933948",
		"lng": "116.419357",
		"status": "",
		"store_type": "分店",
		"address": "北京市东城区东直门南小街105号",
		"dining_type": "【北京东直门小吃】推荐,东直门小吃排行/大全/攻略[第4页]-大众点评网",
		"url": "http://www.dianping.com/beijing/ch10/g112r2066o2p4"
	},
	"lnglat": [116.42559480130761, 39.935346819535575]
}, {
	"properties": {
		"county": "东城区",
		"business_circle": "东四",
		"cuisine": "小吃",
		"name": "庆丰包子铺(灯市口店)",
		"lat": "39.917493",
		"lng": "116.406272",
		"status": "",
		"store_type": "分店",
		"address": "北京市东城区灯市口大街57号二十五中西侧",
		"dining_type": "【北京东四小吃】推荐,东四小吃排行/大全/攻略-大众点评网",
		"url": "http://www.dianping.com/beijing/ch10/g112r1477o2"
	},
	"lnglat": [116.4125163087397, 39.91889712857916]
}, {
	"properties": {
		"county": "东城区",
		"business_circle": "东四",
		"cuisine": "小吃",
		"name": "庆丰包子铺",
		"lat": "39.927435",
		"lng": "116.408893",
		"status": "",
		"store_type": "",
		"address": "北京市东城区育群胡同19号",
		"dining_type": "【北京东四小吃】推荐,东四小吃排行/大全/攻略[第3页]-大众点评网",
		"url": "http://www.dianping.com/beijing/ch10/g112r1477o2p3"
	},
	"lnglat": [116.4151376305518, 39.928838957314255]
}, {
	"properties": {
		"county": "东城区",
		"business_circle": "广渠门内",
		"cuisine": "小吃",
		"name": "庆丰包子铺",
		"lat": "39.891991",
		"lng": "116.432266",
		"status": "",
		"store_type": "",
		"address": "北京市东城区广渠门内大街面味居快餐西10米",
		"dining_type": "【北京广渠门内小吃】推荐,广渠门内小吃排行/大全/攻略-大众点评网",
		"url": "http://www.dianping.com/beijing/ch10/g112r2590o2"
	},
	"lnglat": [116.43848050890358, 39.8933746126079]
}, {
	"properties": {
		"county": "东城区",
		"business_circle": "沙子口",
		"cuisine": "小吃",
		"name": "庆丰包子铺(兴华大街店)",
		"lat": "39.927193",
		"lng": "116.409748",
		"status": "",
		"store_type": "分店",
		"address": "北京市东城区黄村镇兴华南路西侧1号-A2",
		"dining_type": "【北京沙子口小吃】推荐,沙子口小吃排行/大全/攻略-大众点评网",
		"url": "http://www.dianping.com/beijing/ch10/g112r2875o2"
	},
	"lnglat": [116.41599220701038, 39.92859669077839]
}, {
	"properties": {
		"county": "东城区",
		"business_circle": "雍和宫/地坛",
		"cuisine": "小吃",
		"name": "庆丰包子铺(和平里店)",
		"lat": "39.957575",
		"lng": "116.411622",
		"status": "",
		"store_type": "分店",
		"address": "北京市东城区地坛北里1号院1楼",
		"dining_type": "【北京雍和宫/地坛小吃】推荐,雍和宫/地坛小吃排行/大全/攻略-大众点评网",
		"url": "http://www.dianping.com/beijing/ch10/g112r23022o2"
	},
	"lnglat": [116.4178690802953, 39.95897922553031]
}, {
	"properties": {
		"county": "东城区",
		"business_circle": "天坛",
		"cuisine": "小吃",
		"name": "庆丰包子铺(天坛东门店)",
		"lat": "39.885573",
		"lng": "116.418471",
		"status": "",
		"store_type": "",
		"address": "北京市东城区法华寺南里",
		"dining_type": "【北京天坛小吃】推荐,天坛小吃排行/大全/攻略-大众点评网",
		"url": "http://www.dianping.com/beijing/ch10/g112r1505o2"
	},
	"lnglat": [116.4247035274172, 39.88697036212179]
}, {
	"properties": {
		"county": "东城区",
		"business_circle": "沙滩/美术馆灯市口",
		"cuisine": "小吃",
		"name": "庆丰包子铺(沙滩店)",
		"lat": "39.922771",
		"lng": "116.397384",
		"status": "",
		"store_type": "",
		"address": "北京市东城区沙滩北街与五四大街交叉口",
		"dining_type": "【北京沙滩/美术馆灯市口小吃】推荐,沙滩/美术馆灯市口小吃排行/大全/攻略-大众点评网",
		"url": "http://www.dianping.com/beijing/ch10/g112r23026o2"
	},
	"lnglat": [116.40362934413146, 39.924175068761315]
}, {
	"properties": {
		"county": "东城区",
		"business_circle": "崇文门",
		"cuisine": "早茶",
		"name": "庆丰包子铺(崇文门店)",
		"lat": "39.899138",
		"lng": "116.414870",
		"status": "",
		"store_type": "",
		"address": "北京市东城区崇文门东打磨厂街",
		"dining_type": "【北京崇文门早茶】推荐,崇文门早茶排行/大全/攻略-大众点评网",
		"url": "http://www.dianping.com/beijing/ch10/g34055r1504o2"
	},
	"lnglat": [116.4211074102052, 39.900538265517085]
}, {
	"properties": {
		"county": "东城区",
		"business_circle": "前门",
		"cuisine": "早茶",
		"name": "庆丰包子铺(前门西大街店)",
		"lat": "39.898255",
		"lng": "116.387780",
		"status": "",
		"store_type": "",
		"address": "北京市东城区前门西大街正阳市场4号",
		"dining_type": "【北京前门早茶】推荐,前门早茶排行/大全/攻略-大众点评网",
		"url": "http://www.dianping.com/beijing/ch10/g34055r1503o2"
	},
	"lnglat": [116.3940178468491, 39.899653929372946]
}, {
	"properties": {
		"county": "东城区",
		"business_circle": "东四",
		"cuisine": "早茶",
		"name": "庆丰包子铺(灯市口店)",
		"lat": "39.917469",
		"lng": "116.406884",
		"status": "",
		"store_type": "分店",
		"address": "北京市东城区灯市口大街57号二十五中西侧",
		"dining_type": "【北京东四早茶】推荐,东四早茶排行/大全/攻略-大众点评网",
		"url": "http://www.dianping.com/beijing/ch10/g34055r1477o2"
	},
	"lnglat": [116.41312811928117, 39.91887301885015]
}, {
	"properties": {
		"county": "东城区",
		"business_circle": "沙子口",
		"cuisine": "早茶",
		"name": "庆丰包子铺(兴华大街店)",
		"lat": "39.927193",
		"lng": "116.409748",
		"status": "",
		"store_type": "分店",
		"address": "北京市东城区黄村镇兴华南路西侧1号-A2",
		"dining_type": "【北京沙子口早茶】推荐,沙子口早茶排行/大全/攻略-大众点评网",
		"url": "http://www.dianping.com/beijing/ch10/g34055r2875o2"
	},
	"lnglat": [116.41599220701038, 39.92859669077839]
}, {
	"properties": {
		"county": "东城区",
		"business_circle": "前门",
		"cuisine": "小吃",
		"name": "庆丰包子铺(前门店)",
		"lat": "39.894098",
		"lng": "116.392091",
		"status": "",
		"store_type": "",
		"address": "北京市东城区前门大街52号f",
		"dining_type": "【北京前门小吃】推荐,前门小吃排行/大全/攻略-大众点评网",
		"url": "http://www.dianping.com/beijing/ch10/g112r1503o2"
	},
	"lnglat": [116.39833087157628, 39.895499041997795]
}, {
	"properties": {
		"county": "东城区",
		"business_circle": "王府井/东单",
		"cuisine": "小吃",
		"name": "护国寺小吃",
		"lat": "39.909385",
		"lng": "116.403736",
		"status": "",
		"store_type": "",
		"address": "北京市东城区大纱帽胡同老边饺子馆西侧",
		"dining_type": "【北京王府井/东单小吃】推荐,王府井/东单小吃排行/大全/攻略-大众点评网",
		"url": "http://www.dianping.com/beijing/ch10/g112r1475o2"
	},
	"lnglat": [116.40997982347685, 39.910789056358446]
}, {
	"properties": {
		"county": "东城区",
		"business_circle": "安定门",
		"cuisine": "小吃",
		"name": "护国寺小吃店(安定门店)",
		"lat": "39.950521",
		"lng": "116.400980",
		"status": "",
		"store_type": "分店",
		"address": "北京市东城区安定门外大街人才大厦旁",
		"dining_type": "【北京安定门小吃】推荐,安定门小吃排行/大全/攻略-大众点评网",
		"url": "http://www.dianping.com/beijing/ch10/g112r1478o2"
	},
	"lnglat": [116.4072292645156, 39.95192671285515]
}, {
	"properties": {
		"county": "东城区",
		"business_circle": "前门",
		"cuisine": "小吃",
		"name": "护国寺小吃",
		"lat": "39.896159",
		"lng": "116.388104",
		"status": "",
		"store_type": "",
		"address": "北京市东城区弓字胡同10号",
		"dining_type": "【北京前门小吃】推荐,前门小吃排行/大全/攻略-大众点评网",
		"url": "http://www.dianping.com/beijing/ch10/g112r1503o2"
	},
	"lnglat": [116.39434180449616, 39.8975580330529]
}, {
	"properties": {
		"county": "东城区",
		"business_circle": "前门",
		"cuisine": "小吃",
		"name": "护国寺小吃店(和平门店)",
		"lat": "39.893172",
		"lng": "116.378528",
		"status": "",
		"store_type": "分店",
		"address": "北京市东城区南新华街中国邮政楼上",
		"dining_type": "【北京前门小吃】推荐,前门小吃排行/大全/攻略-大众点评网",
		"url": "http://www.dianping.com/beijing/ch10/g112r1503o2"
	},
	"lnglat": [116.38475665464725, 39.894563317484426]
}, {
	"properties": {
		"county": "东城区",
		"business_circle": "东四",
		"cuisine": "小吃",
		"name": "护国寺小吃店(东四店)",
		"lat": "39.931095",
		"lng": "116.411109",
		"status": "",
		"store_type": "分店",
		"address": "北京市东城区东四北大街214号",
		"dining_type": "【北京东四小吃】推荐,东四小吃排行/大全/攻略-大众点评网",
		"url": "http://www.dianping.com/beijing/ch10/g112r1477o2"
	},
	"lnglat": [116.41735299445112, 39.932498373416095]
}, {
	"properties": {
		"county": "东城区",
		"business_circle": "广渠门内",
		"cuisine": "小吃",
		"name": "护国寺小吃店(夕照寺店)",
		"lat": "39.888813",
		"lng": "116.434138",
		"status": "",
		"store_type": "分店",
		"address": "北京市东城区夕照寺街东玖大厦B座107室",
		"dining_type": "【北京广渠门内小吃】推荐,广渠门内小吃排行/大全/攻略-大众点评网",
		"url": "http://www.dianping.com/beijing/ch10/g112r2590o2"
	},
	"lnglat": [116.44034874323047, 39.89019391655385]
}, {
	"properties": {
		"county": "东城区",
		"business_circle": "广渠门内",
		"cuisine": "小吃",
		"name": "护国寺小吃",
		"lat": "39.888813",
		"lng": "116.434138",
		"status": "",
		"store_type": "",
		"address": "北京市东城区绿景馨园东区13-8号",
		"dining_type": "【北京广渠门内小吃】推荐,广渠门内小吃排行/大全/攻略[第4页]-大众点评网",
		"url": "http://www.dianping.com/beijing/ch10/g112r2590o2p4"
	},
	"lnglat": [116.44034874323047, 39.89019391655385]
}, {
	"properties": {
		"county": "东城区",
		"business_circle": "和平里",
		"cuisine": "小吃",
		"name": "护国寺小吃店(和平西街小黄庄店)",
		"lat": "39.963694",
		"lng": "116.411085",
		"status": "",
		"store_type": "分店",
		"address": "北京市东城区和平西街小黄庄路1-9号",
		"dining_type": "【北京和平里小吃】推荐,和平里小吃排行/大全/攻略-大众点评网",
		"url": "http://www.dianping.com/beijing/ch10/g112r2591o2"
	},
	"lnglat": [116.41733317073813, 39.96509867727402]
}, {
	"properties": {
		"county": "东城区",
		"business_circle": "天坛",
		"cuisine": "小吃",
		"name": "护国寺小吃(红桥店)",
		"lat": "39.884642",
		"lng": "116.414403",
		"status": "",
		"store_type": "",
		"address": "北京市东城区天坛东路46号红桥市场最北侧B1楼",
		"dining_type": "【北京天坛小吃】推荐,天坛小吃排行/大全/攻略-大众点评网",
		"url": "http://www.dianping.com/beijing/ch10/g112r1505o2"
	},
	"lnglat": [116.42063891927845, 39.886041840933565]
}, {
	"properties": {
		"county": "东城区",
		"business_circle": "东直门",
		"cuisine": "鲁菜",
		"name": "东兴楼饭庄(东直门店)",
		"lat": "39.940138",
		"lng": "116.424232",
		"status": "",
		"store_type": "分店",
		"address": "北京市东城区东直门内大街5号",
		"dining_type": "【北京东直门鲁菜】推荐,东直门鲁菜排行/大全/攻略-大众点评网",
		"url": "http://www.dianping.com/beijing/ch10/g26483r2066o2"
	},
	"lnglat": [116.4304649009961, 39.941532871022]
}, {
	"properties": {
		"county": "东城区",
		"business_circle": "前门",
		"cuisine": "鲁菜",
		"name": "致美楼饭庄(前门店)",
		"lat": "39.898256",
		"lng": "116.387983",
		"status": "",
		"store_type": "分店",
		"address": "北京市东城区前门西大街前门国帅宾馆",
		"dining_type": "【北京前门鲁菜】推荐,前门鲁菜排行/大全/攻略-大众点评网",
		"url": "http://www.dianping.com/beijing/ch10/g26483r1503o2"
	},
	"lnglat": [116.39422098831187, 39.89965505457965]
}]